27,11,35,050,36,13,07,273,,17,51,283,30*70
$GPGSV,3,3,12,19,31,30,49,202,27*79
$GLGSV,1,1,00*65
$GNGLL,3558.33495,N,07859.6$GNRMC,002037.00,A,3558.33485,N,07859.65855,W,0.377,,310317,,,A,0.699,K,A*38
$GNGGA,002037.00,3558.33485,N,07859.65855,W,1,09,A,3,28,01,30,17,11,19,07,22,03,,,,2.44,1.16,2.14*1D
$GNGSA,A,$GPGSV,3,1,12,01,51,056,33,03,19,117,16,06,13,208,,07,17,172,221,35,050,34,13,07,273,,17,51,283,24*74
$GPGSV,3,3,12,19,31,26549,202,11*7A
$GLGSV,1,1,00*65
$GNGLL,3558.33485,N,07859.65855$GNRMC,002038.00,A,3558.33495,N,07859.65874,W,0.097,,310317,,,A97,N,0.180,K,A*3A
$GNGGA,002038.00,3558.33495,N,07859.65874,W,NGSA,A,3,28,01,30,17,11,19,07,22,03,,,,2.44,1.16,2.14*1D
$GNGS1F
$GPGSV,3,1,12,01,51,056,38,03,19,117,15,06,13,208,,07,17,1725,11,35,050,37,13,07,273,,17,51,283,28*7A
$GPGSV,3,3,12,19,31,30,49,202,19*7D
$GLGSV,1,1,00*65
$GNGLL,3558.33495,N,07859.6$GNRMC,002039.00,A,3558.33498,N,07859.65885,W,0.211,,310317,,,A11,N,0.390,K,A*35
$GNGGA,002039.00,3558.33498,N,07859.65885,W,1,09,A,3,28,01,30,17,11,19,07,22,03,,,,2.44,1.16,2.14*1D
$GNGSA,A,$GPGSV,3,1,12,01,51,056,38,03,19,117,15,06,13,208,,07,17,172,221,35,050,37,13,07,273,,17,51,283,29*7B
$GPGSV,3,3,12,19,31,26549,202,24*77
$GLGSV,1,1,00*65
$GNGLL,3558.33498,N,07859.65885$GNRMC,002040.00,A,3558.33504,N,07859.65901,W,0.162,,310317,,,A00,K,A*3B
$GNGGA,002040.00,3558.33504,N,07859.65901,W,1,09,1.1,28,01,30,17,11,19,07,22,03,,,,2.44,1.16,2.14*1D
$GNGSA,A,3,,,SV,3,1,12,01,51,056,38,03,19,117,15,06,13,208,,07,17,172,22*76,050,37,13,07,273,,17,51,283,29*7B
$GPGSV,3,3,12,19,31,265,21,02,25*77
$GLGSV,1,1,00*65
$GNGLL,3558.33504,N,07859.65901,W,0$GNRMC,002041.00,A,3558.33515,N,07859.65947,W,0.228,,310317,,,A22,K,A*31
$GNGGA,002041.00,3558.33515,N,07859.65947,W,1,09,1.1,28,01,30,17,11,19,07,22,03,,,,2.44,1.16,2.14*1D
$GNGSA,A,3,,,SV,3,1,12,01,51,056,39,03,19,117,16,06,13,208,,07,17,172,23*75,37,13,07,273,,17,51,283,30*70
$GPGSV,3,3,12,19,31,265,21,22,25*7E
$GLGSV,1,1,00*65
$GNGLL,3558.33515,N,07859.65947,W,00204$GNRMC,002042.00,A,3558.33522,N,07859.65964,W,0.025,,310317,,,A47,K,A*39
$GNGGA,002042.00,3558.33522,N,07859.65964,W,1,09,1.1,28,01,30,17,11,19,07,22,03,,,,2.44,1.16,2.14*1D
$GNGSA,A,3,,,SV,3,1,12,01,51,056,39,03,19,117,17,06,13,208,,07,17,172,23*74,050,37,13,07,273,18,17,51,283,30*79
$GPGSV,3,3,12,19,31,265,2,202,26*75
$GLGSV,1,1,00*65
$GNGLL,3558.33522,N,07859.65964,W$GNRMC,002043.00,A,3558.33524,N,07859.65983,W,0.122,,310317,,,A,A*39
$GNGGA,002043.00,3558.33524,N,07859.65983,W,1,09,1.16,8701,30,17,11,19,07,22,03,,,,2.44,1.16,2.14*1D
$GNGSA,A,3,,,,,,,,1,12,01,51,056,39,03,19,117,18,06,13,208,,07,17,172,24*7C
$GP,37,13,07,273,,17,51,283,30*70
$GPGSV,3,3,12,19,31,265,22,22,26*76
$GLGSV,1,1,00*65
$GNGLL,3558.33524,N,07859.65983,W,00204$GNRMC,002044.00,A,3558.33522,N,07859.65990,W,0.079,,310317,,,A46,K,A*30
$GNGGA,002044.00,3558.33522,N,07859.65990,W,1,09,1.1,28,01,30,17,11,19,07,22,03,,,,2.44,1.16,2.14*1D
$GNGSA,A,3,,,SV,3,1,12,01,51,056,38,03,19,117,18,06,13,208,,07,17,172,23*7A,050,37,13,07,273,16,17,51,283,30*77
$GPGSV,3,3,12,19,31,265,2,202,26*7E
$GLGSV,1,1,00*65
$GNGLL,3558.33522,N,07859.65990,W$GNRMC,002045.00,A,3558.33507,N,07859.65994,W,0.242,,310317,,,A49,K,A*30
$GNGGA,002045.00,3558.33507,N,07859.65994,W,1,09,1.1,28,01,30,17,11,19,07,22,03,,,,2.44,1.16,2.14*1D
$GNGSA,A,3,,,SV,3,1,12,01,51,056,38,03,19,117,17,06,13,208,18,07,17,172,23*735,050,37,13,07,273,14,17,51,283,30*74
$GPGSV,3,3,12,19,31,26549,202,26*7E
$GLGSV,1,1,00*65
$GNGLL,3558.33507,N,07859.65994$GNRMC,002046.00,A,3558.33500,N,07859.65996,W,0.129,,310317,,,A,A*31
$GNGGA,002046.00,3558.33500,N,07859.65996,W,1,09,1.16,8701,30,17,11,19,07,22,03,,,,2.44,1.16,2.14*1D
$GNGSA,A,3,,,,,,,,1,12,01,51,056,38,03,19,117,18,06,13,208,16,07,17,172,23*7D
$50,37,13,07,273,12,17,51,283,30*72
$GPGSV,3,3,12,19,31,265,22,02,26*7E
$GLGSV,1,1,00*65
$GNGLL,3558.33500,N,07859.65996,W,0$GNRMC,002047.00,A,3558.33488,N,07859.65996,W,0.266,,310317,,,A,A*30
$GNGGA,002047.00,3558.33488,N,07859.65996,W,1,09,1.16,8701,30,17,11,19,07,22,03,,,,2.44,1.16,2.14*1D
$GNGSA,A,3,,,,,,,,1,12,01,51,056,35,03,19,117,17,06,13,208,15,07,17,172,23*7C
$50,37,13,07,273,13,17,51,283,29*7A
$GPGSV,3,3,12,19,31,265,21,02,26*74
$GLGSV,1,1,00*65
$GNGLL,3558.33488,N,07859.65996,W,00204$GNRMC,002048.00,A,3558.33493,N,07859.65988,W,0.408,,310317,,,A*755
$GNGGA,002048.00,3558.33493,N,07859.65988,W,1,09,1.16,87.6,M0,17,11,19,07,22,03,,,,2.44,1.16,2.14*1D
$GNGSA,A,3,,,,,,,,,,,2,01,51,056,32,03,19,117,14,06,13,208,13,07,17,172,21*7C
$GPGS9,13,07,273,12,17,51,283,27*78
$GPGSV,3,3,12,19,31,265,20,22,24*7E
$GLGSV,1,1,00*65
$GNGLL,3558.33493,N,07859.65988,W,00204$GNRMC,002049.00,A,3558.33498,N,07859.65987,W,0.208,,310317,,,A08,N,0.386,K,A*3A
$GNGGA,002049.00,3558.33498,N,07859.65987,W,NGSA,A,3,28,01,30,17,11,19,07,22,03,,,,2.44,1.16,2.14*1D
$GNGS1F
$GPGSV,3,1,12,01,51,056,32,03,19,117,08,06,13,208,09,07,17,172,,11,35,050,30,13,07,273,09,17,51,283,26*7E
$GPGSV,3,3,12,19,31,30,49,202,21*72
$GLGSV,1,1,00*65
$GNGLL,3558.33498,N,07859.6$GNRMC,002050.00,A,3558.33488,N,07859.65984,W,0.219,,310317,,,A,0.406,K,A*35
$GNGGA,002050.00,3558.33488,N,07859.65984,W,1,09,A,3,28,01,30,17,11,19,07,22,03,,,,2.44,1.16,2.14*1D
$GNGSA,A,3,,,SV,3,1,12,01,51,056,34,03,19,117,15,06,13,208,08,07,17,172,19*735,050,34,13,07,273,08,17,51,283,26*70
$GPGSV,3,3,12,19,31,26549,202,20*72
$GLGSV,1,1,00*65
$GNGLL,3558.33488,N,07859.65984$GNRMC,002051.00,A,3558.33491,N,07859.65979,W,0.187,,310317,,,A47,K,A*33
$GNGGA,002051.00,3558.33491,N,07859.65979,W,1,09,1.1,28,01,30,17,11,19,07,22,03,,,,2.44,1.16,2.14*1D
$GNGSA,A,3,,,SV,3,1,12,01,51,056,36,03,19,117,15,06,13,208,07,07,17,172,19*735,050,35,13,07,273,08,17,51,283,27*7B
$GPGSV,3,3,12,19,31,26549,202,21*79
$GLGSV,1,1,00*65
$GNGLL,3558.33491,N,07859.65979$GNRMC,002052.00,A,3558.33491,N,07859.65970,W,0.137,,310317,,,A,0.253,K,A*3C
$GNGGA,002052.00,3558.33491,N,07859.65970,W,1,09,A,3,28,01,30,17,11,19,07,22,03,,,,2.44,1.16,2.15*1C
$GNGSA,A,$GPGSV,3,1,12,01,51,055,36,03,19,117,15,06,13,208,08,07,17,172,,11,35,050,36,13,07,273,09,17,51,283,27*7B
$GPGSV,3,3,12,19,31,26549,202,21*73
$GLGSV,1,1,00*65
$GNGLL,3558.33491,N,07859.65970$GNRMC,002053.00,A,3558.33503,N,07859.65977,W,0.097,,310317,,,A*75C
$GNGGA,002053.00,3558.33503,N,07859.65977,W,1,10,0.92,87.2,M0,1,11,19,07,22,03,13,,,1.64,0.92,1.36*10
$GNGSA,A,3,,,,,,,,,,,,,01,51,055,37,03,19,117,10,06,13,208,11,07,17,172,20*7D
$GPGSV,13,07,273,12,17,51,283,28*7E
$GPGSV,3,3,12,19,31,265,21,22,21,71
$GLGSV,1,1,00*65
$GNGLL,3558.33503,N,07859.65977,W,002053.$GNRMC,002054.00,A,3558.33502,N,07859.65976,W,0.197,,310317,,,A*73
$GNGNGGA,002054.00,3558.33502,N,07859.65976,W,1,10,0.92,87.2,M,-34,11,19,07,22,03,13,,,1.64,0.92,1.36*10
$GNGSA,A,3,,,,,,,,,,,,,1.641,055,34,03,19,116,16,06,13,208,11,07,17,172,20*79
$GPGSV,3,2,7,273,13,17,51,283,27*75
$GPGSV,3,3,12,19,31,265,21,22,21,090,$GLGSV,1,1,00*65
$GNGLL,3558.33502,N,07859.65976,W,002054.00,A$GNRMC,002055.00,A,3558.33502,N,07859.65984,W,0.362,,310317,,,A*77
$GNVTG,A,002055.00,3558.33502,N,07859.65984,W,1,10,0.92,86.9,M,-34.1,M,,*47,22,03,13,,,1.64,0.92,1.36*10
$GNGSA,A,3,,,,,,,,,,,,,1.64,0.95,35,03,19,116,13,06,13,208,11,07,17,172,20*7D
$GPGSV,3,2,12,03,13,17,51,283,26*75
$GPGSV,3,3,12,19,31,265,19,22,21,090,34,2SV,1,1,00*65
$GNGLL,3558.33502,N,07859.65984,W,002055.00,A,A*6$GNRMC,002056.00,A,3558.33497,N,07859.65984,W,0.413,,310317,,,A*78
$GNVTG,A,002056.00,3558.33497,N,07859.65984,W,1,10,0.92,86.8,M,-34.1,M19,07,22,03,13,,,1.64,0.92,1.36*10
$GNGSA,A,3,,,,,,,,,,,,,1.641,055,35,03,19,116,15,06,14,208,13,07,17,172,19*74
$GPGSV,3,2,7,273,14,17,51,283,26*71
$GPGSV,3,3,12,19,31,265,17,22,21,090,$GLGSV,1,1,00*65
$GNGLL,3558.33497,N,07859.65984,W,002056.00,A$GNRMC,002057.00,A,3558.33498,N,07859.65985,W,0.131,,310317,,,A*72
$GNVTG,,T,,2057.00,3558.33498,N,07859.65985,W,1,10,0.92,86.8,M,-34.1,M,,*47,22,03,13,,,1.64,0.92,1.36*10
$GNGSA,A,3,,,,,,,,,,,,,1.64,0.95,35,03,19,116,13,06,14,208,09,07,17,172,19*79
$GPGSV,3,2,12,03,12,17,51,283,26*71
$GPGSV,3,3,12,19,31,265,15,22,21,090,34,2SV,1,1,00*65
$GNGLL,3558.33498,N,07859.65985,W,002057.00,A,A*6$GNRMC,002058.00,A,3558.33545,N,07859.66013,W,1.987,337.05,310317,,,A*61
$GNVTB
$GNGGA,002058.00,3558.33545,N,07859.66013,W,1,10,0.92,86.4,M0,17,11,19,07,22,03,13,,,1.64,0.92,1.36*10
$GNGSA,A,3,,,,,,,,,,12,01,51,055,28,03,19,116,10,06,14,208,,07,17,172,19*7F
$GPGS8,13,07,273,14,17,51,283,25*78
$GPGSV,3,3,12,19,31,265,16,22,22*76
$GLGSV,1,1,00*65
$GNGLL,3558.33545,N,07859.66013,W,002058.00$GNRMC,002059.00,A,3558.33586,N,07859.66011,W,1.153,,310317,,,A*70
$GNVTG,A,02059.00,3558.33586,N,07859.66011,W,1,10,0.92,86.1,M,-34.1,M,,*47,22,03,13,,,1.64,0.92,1.36*10
$GNGSA,A,3,,,,,,,,,,,,,1.64,0.95,27,03,19,116,08,06,14,208,,07,17,172,18*78
$GPGSV,3,2,12,08,14,17,51,283,24*7D
$GPGSV,3,3,12,19,31,265,16,22,21,090,27,28,,1,1,00*65
$GNGLL,3558.33586,N,07859.66011,W,002059.00,A,A*68$GNRMC,002100.00,A,3558.33630,N,07859.66032,W,1.789,,310317,,,A*73
$GNVTG,,T,,M,1..00,3558.33630,N,07859.66032,W,1,10,0.92,86.1,M,-34.1,M,,*41
$,03,13,,,1.64,0.92,1.36*10
$GNGSA,A,3,,,,,,,,,,,,,1.64,0.92,1.,03,19,116,07,06,14,208,,07,17,172,16*79
$GPGSV,3,2,12,08,05,07,51,283,23*7B
$GPGSV,3,3,12,19,31,265,14,22,21,090,26,28,71,0,00*65
$GNGLL,3558.33630,N,07859.66032,W,002100.00,A,A*6A
$GNRMC,002101.00,A,3558.33599,N,07859.66038,W,0.458,,310317,,,A*76
$GNVTG,,T,,M,0.458,3558.33599,N,07859.66038,W,1,10,0.92,86.4,M,-34.1,M,,*4F
$GNGS13,,,1.64,0.92,1.36*10
$GNGSA,A,3,,,,,,,,,,,,,1.64,0.92,1.36*119,116,08,06,14,208,,07,17,172,13*73
$GPGSV,3,2,12,08,05,068,1,283,23*79
$GPGSV,3,3,12,19,31,265,15,22,21,090,26,28,71,004,165
$GNGLL,3558.33599,N,07859.66038,W,002101.00,A,A*61
$GNRMC,002102.00,A,3558.33588,N,07859.66041,W,0.393,,310317,,,A*7B
$GNVTG,,T,,M,0.393,3558.33588,N,07859.66041,W,1,10,0.92,86.6,M,-34.1,M,,*40
$GNGS13,,,1.64,0.92,1.36*10
$GNGSA,A,3,,,,,,,,,,,,,1.64,0.92,1.36*119,116,09,06,14,208,,07,17,172,13*72
$GPGSV,3,2,12,08,05,068,1,283,23*7F
$GPGSV,3,3,12,19,31,265,16,22,21,090,26,28,71,004,165
$GNGLL,3558.33588,N,07859.66041,W,002102.00,A,A*6C
$GNRMC,002103.00,A,3558.33534,N,07859.66028,W,1.450,,310317,,,A*7B
$GNVTG,,T,,M,1.450,3558.33534,N,07859.66028,W,1,10,0.92,86.8,M,-34.1,M,,*47
$GNGS13,,,1.64,0.92,1.36*10
$GNGSA,A,3,,,,,,,,,,,,,1.64,0.92,1.36*119,116,08,06,14,208,,07,17,172,12*72
$GPGSV,3,2,12,08,05,068,1,283,22*7F
$GPGSV,3,3,12,19,31,265,15,22,21,090,25,28,71,004,165
$GNGLL,3558.33534,N,07859.66028,W,002103.00,A,A*65
$GNRMC,002104.00,A,3558.33488,N,07859.66018,W,1.664,,310317,,,A*7C
$GNVTG,,T,,M,1.664,N,3..33488,N,07859.66018,W,1,09,1.11,86.9,M,-34.1,M,,*46
$GNGSA,A,3,281.11,1.37*1F
$GNGSA,A,3,,,,,,,,,,,,,1.76,1.11,1.37*18
$GPGSV,06,14,208,,07,17,172,*70
$GPGSV,3,2,12,08,05,068,17,11,35,050,$GPGSV,3,3,12,19,31,265,14,22,21,090,25,28,71,004,19,30,49,202,558.33488,N,07859.66018,W,002104.00,A,A*67
$GNRMC,002105.00,A,3558.33504,N,07859.66007,W,0.978,,310317,,,A*75
$GNVTG,,T,,M,0.978,N,1..33504,N,07859.66007,W,1,09,1.11,86.0,M,-34.1,M,,*45
$GNGSA,A,.76,1.11,1.37*1F
$GNGSA,A,3,,,,,,,,,,,,,1.76,1.11,1.37*18
$GP,08,06,14,208,,07,17,172,*71
$GPGSV,3,2,12,08,05,068,17,11,35,72
$GPGSV,3,3,12,19,31,265,14,22,21,090,25,28,71,004,18,30,49,LL,3558.33504,N,07859.66007,W,002105.00,A,A*6D
$GNRMC,002106.00,A,3558.33515,N,07859.66023,W,0.155,,310317,,,A*77
$GNVTG,,T,,M,0.155,N,0.287,15,N,07859.66023,W,1,08,1.64,85.9,M,-34.1,M,,*49
$GNGSA,A,3,2864,1.67*1E
$GNGSA,A,3,,,,,,,,,,,,,2.34,1.64,1.67*1A
$GPGSV,3,,14,208,,07,17,172,06*77
$GPGSV,3,2,12,08,05,068,15,11,35,050,$GPGSV,3,3,12,19,31,265,15,22,21,090,25,28,71,004,16,30,49,202,8.33515,N,07859.66023,W,002106.00,A,A*68
$GNRMC,002107.00,A,3558.33529,N,07859.66029,W,0.244,,310317,,,A*70
$GNVTG,,T,,M,0.244,N,0..33529,N,07859.66029,W,1,08,1.64,85.3,M,-34.1,M,,*47
$GNGSA,A,4,1.64,1.67*1E
$GNGSA,A,3,,,,,,,,,,,,,2.34,1.64,1.67*1A
$GPGS9,06,14,208,,07,17,172,07*74
$GPGSV,3,2,12,08,05,068,16,11,35,70
$GPGSV,3,3,12,19,31,265,16,22,21,090,31,28,71,004,19,30,49,LL,3558.33529,N,07859.66029,W,002107.00,A,A*6C
$GNRMC,002108.00,A,3558.33542,N,07859.66019,W,0.103,,310317,,,A*71
$GNVTG,,T,,M,0.103,N,0.191,K,A*,07859.66019,W,1,08,1.64,85.7,M,-34.1,M,,*42
$GNGSA,A,3,28,01,.67*1E
$GNGSA,A,3,,,,,,,,,,,,,2.34,1.64,1.67*1A
$GPGSV,3,1,12208,,07,17,172,10*73
$GPGSV,3,2,12,08,05,068,20,11,35,050,32,1SV,3,3,12,19,31,265,20,22,21,090,32,28,71,004,22,30,49,202,21*733542,N,07859.66019,W,002108.00,A,A*6D
$GNRMC,002109.00,A,3558.33557,N,07859.66009,W,0.046,,310317,,,A*75
$GNVTG,,T,,M,0.046,N,0.085,57,N,07859.66009,W,1,08,1.30,86.1,M,-34.1,M,,*42
$GNGSA,A,3,2830,1.44*17
$GNGSA,A,3,,,,,,,,,,,,,1.94,1.30,1.44*13
$GPGSV,3,,14,208,,07,17,172,10*73
$GPGSV,3,2,12,08,05,068,21,11,35,050,$GPGSV,3,3,12,19,31,265,22,22,21,090,32,28,71,004,24,30,49,202,558.33557,N,07859.66009,W,002109.00,A,A*69
$GNRMC,002110.00,A,3558.33580,N,07859.66014,W,0.193,,310317,,,A*72
$GNVTG,,T,,M,0.193,N,0.357,80,N,07859.66014,W,1,08,1.30,85.8,M,-34.1,M,,*46
$GNGSA,A,3,2830,1.44*17
$GNGSA,A,3,,,,,,,,,,,,,1.94,1.30,1.44*13
$GPGSV,3,,14,208,,07,17,172,10*73
$GPGSV,3,2,12,08,05,068,22,11,35,050,$GPGSV,3,3,12,19,31,265,22,22,21,090,32,28,71,004,24,30,49,202,558.33580,N,07859.66014,W,002110.00,A,A*67
$GNRMC,002111.00,A,3558.33555,N,07859.66009,W,0.435,,310317,,,A*7E
$GNVTG,,T,,M,0.435,N,0.806,55,N,07859.66009,W,1,09,0.96,86.1,M,-34.1,M,,*45
$GNGSA,A,3,28,01,,1.39*15
$GNGSA,A,3,,,,,,,,,,,,,1.69,0.96,1.39*16
$GPGSV,3,1,4,208,,07,17,172,12*70
$GPGSV,3,2,12,08,05,068,22,11,35,050,28PGSV,3,3,12,19,31,265,22,22,21,090,31,28,71,004,24,30,49,202,228.33555,N,07859.66009,W,002111.00,A,A*62
$GNRMC,002112.00,A,3558.33542,N,07859.66001,W,0.484,,310317,,,A*79
$GNVTG,,T,,M,0.484,N,0.896,K,A*,07859.66001,W,1,09,0.96,86.3,M,-34.1,M,,*4A
$GNGSA,A,3,28,01,,1.39*15
$GNGSA,A,3,,,,,,,,,,,,,1.69,0.96,1.39*16
$GPGSV,3,1,4,208,,07,17,172,11*73
$GPGSV,3,2,12,08,05,068,21,11,35,050,29PGSV,3,3,12,19,31,265,21,22,21,090,31,28,71,004,23,30,49,202,218.33542,N,07859.66001,W,002112.00,A,A*6F
$GNRMC,002113.00,A,3558.33536,N,07859.65990,W,0.402,,310317,,,A*77
$GNVTG,,T,,M,0.402,N,0.744,K,A*3C
59.65990,W,1,08,1.20,86.4,M,-34.1,M,,*40
$GNGSA,A,3,28,01,30,11A
$GNGSA,A,3,,,,,,,,,,,,,2.47,1.20,2.16*1B
$GPGSV,3,1,12,01,,07,17,172,14*7C
$GPGSV,3,2,12,08,05,068,22,11,35,050,33,13,07,3,12,19,31,265,22,22,21,090,33,28,71,004,25,30,49,202,22*7A
$6,N,07859.65990,W,002113.00,A,A*6F
$GNRMC,002114.00,A,3558.33525,N,07859.65976,W,0.246,,310317,,,A*7C
$GNVTG,,T,,M,0.246,N,0.456,K,A*3A
$GNG5976,W,1,09,0.96,86.5,M,-34.1,M,,*41
$GNGSA,A,3,28,01,30,17,11
$GNGSA,A,3,,,,,,,,,,,,,1.69,0.96,1.39*16
$GPGSV,3,1,12,01,517,17,172,14*7E
$GPGSV,3,2,12,08,05,068,22,11,35,050,33,13,07,2,12,19,31,265,23,22,21,090,33,28,71,004,26,30,49,202,23*79
$GLN,07859.65976,W,002114.00,A,A*62
$GNRMC,002115.00,A,3558.33516,N,07859.65962,W,0.141,,310317,,,A*7C
$GNVTG,,T,,M,0.141,N,0.261,K,A*3C
59.65962,W,1,10,0.92,86.6,M,-34.1,M,,*4A
$GNGSA,A,3,28,01,30,1.36*10
$GNGSA,A,3,,,,,,,,,,,,,1.64,0.92,1.36*10
$GPGSV,3,1,12208,,07,17,172,13*79
$GPGSV,3,2,12,08,05,068,21,11,35,050,32,1SV,3,3,12,19,31,265,22,22,21,090,33,28,71,004,25,30,49,202,23*733516,N,07859.65962,W,002115.00,A,A*66
$GNRMC,002116.00,A,3558.33511,N,07859.65960,W,0.285,,310317,,,A*71
$GNVTG,,T,,M,0.285,N,0.528,K,A*3D
$GNG5960,W,1,09,1.11,86.5,M,-34.1,M,,*4D
$GNGSA,A,3,28,01,30,17,11
$GNGSA,A,3,,,,,,,,,,,,,1.76,1.11,1.37*18
$GPGSV,3,1,12,01,517,17,172,*7F
$GPGSV,3,2,12,08,05,068,21,11,35,050,28,13,07,2732,19,31,265,21,22,21,090,27,28,71,004,24,30,49,202,23*7C
$GLGS07859.65960,W,002116.00,A,A*60
$GNRMC,002117.00,A,3558.33509,N,07859.65970,W,0.367,,310317,,,A*75
$GNVTG,,T,,M,0.367,N,0..33509,N,07859.65970,W,1,09,1.11,86.2,M,-34.1,M,,*43
$GNGSA,A,.76,1.11,1.37*1F
$GNGSA,A,3,,,,,,,,,,,,,1.76,1.11,1.37*18
$GP,09,06,14,208,,07,17,172,*76
$GPGSV,3,2,12,08,05,068,18,11,35,7A
$GPGSV,3,3,12,19,31,265,19,22,21,090,27,28,71,004,22,30,49,LL,3558.33509,N,07859.65970,W,002117.00,A,A*69
$GNRMC,002118.00,A,3558.33487,N,07859.65976,W,0.251,,310317,,,A*7F
$GNVTG,,T,,M,0.251,N,0.465,K,A*3C
$GNGGA,0,W,1,08,1.28,86.0,M,-34.1,M,,*44
$GNGSA,A,3,28,01,30,17,11,19,SA,A,3,,,,,,,,,,,,,2.53,1.28,2.18*18
$GPGSV,3,1,12,01,51,055,372,*71
$GPGSV,3,2,12,08,05,068,19,11,35,050,33,13,07,273,14,171,265,19,22,21,090,36,28,72,005,21,30,49,202,17*77
$GLGSV,1,1,65976,W,002118.00,A,A*67
$GNRMC,002119.00,A,3558.33473,N,07859.65970,W,0.615,,310317,,,A*77
$GNVTG,,T,,M,0.615,N,1.140,K,A*3B
$GNGGA,0,W,1,08,1.28,86.6,M,-34.1,M,,*4E
$GNGSA,A,3,28,01,30,17,11,19,SA,A,3,,,,,,,,,,,,,2.53,1.28,2.18*18
$GPGSV,3,1,12,01,51,055,372,*79
$GPGSV,3,2,12,08,05,068,21,11,35,050,28,13,07,273,14,171,265,21,22,21,090,34,28,72,005,27,30,49,202,17*78
$GLGSV,1,1,65970,W,002119.00,A,A*6B
$GNRMC,002120.00,A,3558.33468,N,07859.65970,W,0.583,,310317,,,A*7B
$GNVTG,,T,,M,0.583,N,1.080,K,A*3A
$GNGGA,0,W,1,08,1.28,86.5,M,-34.1,M,,*4D
$GNGSA,A,3,28,01,30,17,11,19,SA,A,3,,,,,,,,,,,,,2.53,1.28,2.18*18
$GPGSV,3,1,12,01,51,055,372,*77
$GPGSV,3,2,12,08,05,068,20,11,35,050,27,13,07,273,13,171,265,20,22,21,090,28,28,72,005,24,30,48,202,18*79
$GLGSV,1,1,65970,W,002120.00,A,A*6B
$GNRMC,002121.00,A,3558.33463,N,07859.65966,W,0.069,,310317,,,A*77
$GNVTG,,T,,M,0.069,N,0.128,K,A*39
$GNGGA,00212,09,1.11,86.6,M,-34.1,M,,*48
$GNGSA,A,3,28,01,30,17,11,19,22,0,A,3,,,,,,,,,,,,,1.76,1.11,1.37*18
$GPGSV,3,1,12,01,51,055,35,,*78
$GPGSV,3,2,12,08,05,068,22,11,35,050,32,13,07,273,13,17,51,2824,22,21,090,33,28,72,005,25,30,48,202,19*77
$GLGSV,1,1,00*65W,002121.00,A,A*66
$GNRMC,002122.00,A,3558.33467,N,07859.65970,W,0.112,,310317,,,A*7A
$GNVTG,,T,,M,0.112,N,0.208,K,A*35
$GNGGA,0,W,1,09,1.11,86.7,M,-34.1,M,,*49
$GNGSA,A,3,28,01,30,17,11,19,NGSA,A,3,,,,,,,,,,,,,1.76,1.11,1.37*18
$GPGSV,3,1,12,01,51,055,172,19*71
$GPGSV,3,2,12,08,05,068,22,11,35,050,31,13,07,273,13,171,265,24,22,21,090,31,28,72,005,24,30,48,202,19*74
$GLGSV,1,1,65970,W,002122.00,A,A*66
$GNRMC,002123.00,A,3558.33461,N,07859.65978,W,0.258,,310317,,,A*78
$GNVTG,,T,,M,0.258,N,0.478,K,A*39
$GNG5978,W,1,09,1.11,86.7,M,-34.1,M,,*46
$GNGSA,A,3,28,01,30,17,11
$GNGSA,A,3,,,,,,,,,,,,,1.76,1.11,1.37*18
$GPGSV,3,1,12,01,517,17,172,17*7F
$GPGSV,3,2,12,08,05,068,22,11,35,050,31,13,07,2,12,19,31,265,24,22,21,090,32,28,72,005,25,30,48,202,19*76
$GLN,07859.65978,W,002123.00,A,A*69
$GNRMC,002124.00,A,3558.33466,N,07859.65991,W,0.074,,310317,,,A*73
$GNVTG,,T,,M,0.074,N,0.137,K,A*3B
$GNG5991,W,1,09,1.11,86.5,M,-34.1,M,,*43
$GNGSA,A,3,28,01,30,17,11
$GNGSA,A,3,,,,,,,,,,,,,1.76,1.11,1.37*18
$GPGSV,3,1,12,01,517,17,172,14*78
$GPGSV,3,2,12,08,05,068,22,11,35,050,31,13,07,2,12,19,31,265,23,22,21,090,32,28,72,005,25,30,48,202,19*71
$GLN,07859.65991,W,002124.00,A,A*6E
$GNRMC,002125.00,A,3558.33470,N,07859.65995,W,0.051,,310317,,,A*76
$GNVTG,,T,,M,0.051,N,0.094,K,A*34
$GNG5995,W,1,09,1.11,86.4,M,-34.1,M,,*40
$GNGSA,A,3,28,01,30,17,11,19,NGSA,A,3,,,,,,,,,,,,,1.76,1.11,1.37*18
$GPGSV,3,1,12,01,51,055,172,12*7C
$GPGSV,3,2,12,08,05,068,23,11,35,050,31,13,07,273,119,31,265,24,22,21,090,32,28,72,005,26,30,48,202,18*74
$GLGSV,859.65995,W,002125.00,A,A*6C
$GNRMC,002126.00,A,3558.33462,N,07859.65991,W,0.054,,310317,,,A*77
$GNVTG,,T,,M,0.054,N,0.100,K,A*3D
$GNGGA,002126.001.11,86.5,M,-34.1,M,,*45
$GNGSA,A,3,28,01,30,17,11,19,22,03,13,,,,,,,,,,,,,1.76,1.11,1.37*18
$GPGSV,3,1,12,01,51,055,34,03,17D
$GPGSV,3,2,12,08,05,068,24,11,35,050,32,13,07,273,15,17,51,5,25,22,21,090,32,28,72,005,26,30,48,202,18*75
$GLGSV,1,1,00*61,W,002126.00,A,A*68
$GNRMC,002127.00,A,3558.33487,N,07859.65982,W,0.349,,310317,,,A*70
$GNVTG,,T,,M,0.349,N,0.646,K,A*37
$GNGGA,002127.000.92,86.9,M,-34.1,M,,*43
$GNGSA,A,3,28,01,30,17,11,19,07,22,03,3,,,,,,,,,,,,,1.64,0.92,1.36*10
$GPGSV,3,1,12,01,51,055,34,032*78
$GPGSV,3,2,12,08,05,068,24,11,35,050,32,13,07,273,15,17,5265,24,22,21,090,33,28,72,005,26,30,48,202,17*7A
$GLGSV,1,1,00982,W,002127.00,A,A*60
$GNRMC,002128.00,A,3558.33526,N,07859.65987,W,0.291,,310317,,,A*74
$GNVTG,,T,,M,0.291,N,0.539,K,A*38
$GNGGA,002128.00,355,86.3,M,-34.1,M,,*49
$GNGSA,A,3,28,01,30,17,11,19,07,22,03,13,,,,,,,,,,,,1.64,0.92,1.36*10
$GPGSV,3,1,12,01,51,055,34,03,19,
$GPGSV,3,2,12,08,05,068,25,11,35,050,32,13,07,273,15,17,51,2824,22,21,090,33,28,72,005,27,30,48,202,16*7A
$GLGSV,1,1,00*65W,002128.00,A,A*60
$GNRMC,002129.00,A,3558.33537,N,07859.65998,W,0.466,,310317,,,A*75
$GNVTG,,T,,M,0.466,N,0.864,K,A*33
$GNGGA,002129.001.16,86.1,M,-34.1,M,,*49
$GNGSA,A,3,28,01,30,17,11,19,07,22,03,3,,,,,,,,,,,,,2.44,1.16,2.15*1E
$GPGSV,3,1,12,01,51,055,35,030*7C
$GPGSV,3,2,12,08,05,068,25,11,35,050,33,13,07,273,15,17,5265,25,22,21,090,34,28,72,005,29,30,48,202,15*71
$GLGSV,1,1,00998,W,002129.00,A,A*6F
$GNRMC,002130.00,A,3558.33576,N,07859.66006,W,0.313,,310317,,,A*70
$GNVTG,,T,,M,0.313,N,0.579,K,A*37
$GNGGA,002130.00,355,85.5,M,-34.1,M,,*42
$GNGSA,A,3,28,01,30,17,11,19,07,22,,,,,2.,,,,,,,2.47,1.20,2.16*1B
$GPGSV,3,1,12,01,51,055,35,03,19,116,PGSV,3,2,12,08,05,068,25,11,35,050,33,13,07,273,,17,51,284,31*721,090,33,28,72,005,28,30,48,202,16*74
$GLGSV,1,1,00*65
$GNGL30.00,A,A*6F
$GNRMC,002131.00,A,3558.33583,N,07859.66011,W,0.451,,310317,,,A7C
$GNVTG,,T,,M,0.451,N,0.835,K,A*33
$GNGGA,002131.00,3558.334,M,-34.1,M,,*46
$GNGSA,A,3,28,01,30,17,11,19,22,03,,,,,2.53,1,,,2.53,1.28,2.18*18
$GPGSV,3,1,12,01,51,055,33,03,19,116,12,0,3,2,12,08,05,068,24,11,35,050,30,13,07,273,,17,51,284,30*72
$90,31,28,72,005,28,30,48,202,13*72
$GLGSV,1,1,00*65
$GNGLL,350,A,A*62
$GNRMC,002132.00,A,3558.33577,N,07859.66012,W,0.148,,310317,,,A$GNVTG,,T,,M,0.148,N,0.274,K,A*31
$GNGGA,002132.00,3558.33577,-34.1,M,,*49
$GNGSA,A,3,28,01,17,11,19,22,03,,,,,,3.45,1.98,2.5,1.98,2.82*16
$GPGSV,3,1,12,01,51,055,32,03,19,116,12,06,14,22,08,05,068,23,11,35,050,30,13,07,273,,17,51,284,29*7D
$GPGSV,28,72,005,27,30,48,202,08*71
$GLGSV,1,1,00*65
$GNGLL,3558.33569
$GNRMC,002133.00,A,3558.33570,N,07859.66012,W,0.160,,310317,,,A76
$GNVTG,,T,,M,0.160,N,0.297,K,A*36
$GNGGA,002133.00,3558.33-34.1,M,,*4F
$GNGSA,A,3,28,01,17,11,19,22,03,,,,,,3.45,1.98,2.5,1.98,2.82*16
$GPGSV,3,1,12,01,51,055,34,03,19,116,14,06,14,22,08,05,068,24,11,35,050,32,13,07,273,,17,51,284,30*70
$GPGSV,28,72,005,27,30,48,202,06*7C
$GLGSV,1,1,00*65
$GNGLL,3558.3356F
$GNRMC,002134.00,A,3558.33598,N,07859.66013,W,0.067,,310317,,,ATG,,T,,M,0.067,N,0.125,K,A*3A
$GNGGA,002134.00,3558.33598,N,071,M,,*46
$GNGSA,A,3,28,01,17,11,19,07,22,03,,,,,3.08,1.45,2.711.45,2.71*13
$GPGSV,3,1,12,01,51,055,32,03,19,116,13,06,14,20808,05,068,24,11,35,050,32,13,07,273,,17,51,284,31*71
$GPGSV,3,,72,005,27,30,48,202,05*7E
$GLGSV,1,1,00*65
$GNGLL,3558.33598$GNRMC,002135.00,A,3558.33620,N,07859.66008,W,0.123,,310317,,,ATG,,T,,M,0.123,N,0.228,K,A*35
$GNGGA,002135.00,3558.33620,N,071,M,,*4D
$GNGSA,A,3,28,01,17,11,19,07,22,03,,,,,3.08,1.45,2.711.45,2.71*13
$GPGSV,3,1,12,01,51,055,33,03,19,116,13,06,14,20808,05,068,25,11,35,050,32,13,07,273,,17,51,284,31*70
$GPGSV,3,,72,005,27,30,48,202,04*7F
$GLGSV,1,1,00*65
$GNGLL,3558.33620,N,0$GNRMC,002136.00,A,3558.33647,N,07859.66012,W,0.160,,310317,,,AT,,M,0.160,N,0.297,K,A*36
$GNGGA,002136.00,3558.33647,N,07859.,*47
$GNGSA,A,3,28,01,17,11,19,07,22,03,,,,,3.08,1.45,2.71*12,2.71*13
$GPGSV,3,1,12,01,51,055,32,03,19,116,12,06,14,208,,075,068,23,11,35,050,32,13,07,273,,17,51,284,31*76
$GPGSV,3,3,12005,27,30,48,202,04*7D
$GLGSV,1,1,00*65
$GNGLL,3558.33647,N,0$GNRMC,002137.00,A,3558.33654,N,07859.66011,W,0.109,,310317,,,ATG,,T,,M,0.109,N,0.202,K,A*35
$GNGGA,002137.00,3558.33654,N,071,M,,*4D
$GNGSA,A,3,28,01,30,17,11,19,22,03,,,,,2.53,1.28,2.191.28,2.19*19
$GPGSV,3,1,12,01,51,055,33,03,19,116,10,06,14,20808,05,068,23,11,35,050,33,13,07,273,,17,51,284,30*76
$GPGSV,3,,72,005,27,30,48,202,11*7A
$GLGSV,1,1,00*65
$GNGLL,3558.33654$GNRMC,002138.00,A,3558.33657,N,07859.66007,W,0.116,,310317,,,ATG,,T,,M,0.116,N,0.215,K,A*3D
$GNGGA,002138.00,3558.33657,N,071,M,,*4D
$GNGSA,A,3,28,01,30,17,11,19,22,,,,,,2.67,1.43,2.26*143,2.26*1F
$GPGSV,3,1,12,01,51,055,33,03,19,116,09,06,14,208,,,05,068,23,11,35,050,33,13,07,273,07,17,51,284,30*71
$GPGSV,3,,72,005,27,30,48,202,11*7A
$GLGSV,1,1,00*65
$GNGLL,3558.33657$GNRMC,002139.00,A,3558.33644,N,07859.66001,W,0.062,,310317,,,ATG,,T,,M,0.062,N,0.115,K,A*3C
$GNGGA,002139.00,3558.33644,N,071,M,,*41
$GNGSA,A,3,28,01,30,17,11,19,22,,,,,,2.67,1.43,2.26*143,2.26*1F
$GPGSV,3,1,12,01,51,055,34,03,19,116,08,06,14,208,,,05,068,24,11,35,050,33,13,07,273,08,17,51,284,30*79
$GPGSV,3,,72,005,27,30,48,202,11*7A
$GLGSV,1,1,00*65
$GNGLL,3558.33644$GNRMC,002140.00,A,3558.33632,N,07859.65998,W,0.049,,310317,,,A$GNVTG,,T,,M,0.049,N,0.090,K,A*39
$GNGGA,002140.00,3558.33632,-34.1,M,,*45
$GNGSA,A,3,28,01,30,17,11,19,22,,,,,,2.67,1.43,2.26*143,2.26*1F
$GPGSV,3,1,12,01,51,055,34,03,19,116,08,06,14,208,,5,068,23,11,35,050,33,13,07,273,12,17,51,284,30*75
$GPGSV,3,3,2,005,27,30,48,202,11*7A
$GLGSV,1,1,00*65
$GNGLL,3558.33632,N$GNRMC,002141.00,A,3558.33631,N,07859.66000,W,0.139,,310317,,,AT,,M,0.139,N,0.257,K,A*36
$GNGGA,002141.00,3558.33631,N,07859.,*4D
$GNGSA,A,3,28,01,30,17,11,19,22,,,,,,2.67,1.43,2.26*19
$.26*1F
$GPGSV,3,1,12,01,50,055,32,03,19,116,08,06,14,208,,07,18,23,11,35,050,30,13,07,273,12,17,51,284,29*7E
$GPGSV,3,3,12,15,27,30,48,202,11*79
$GLGSV,1,1,00*65
$GNGLL,3558.33631,N,078$GNRMC,002142.00,A,3558.33636,N,07859.65998,W,0.038,,310317,,,AT,,M,0.038,N,0.070,K,A*31
$GNGGA,002142.00,3558.33636,N,07859.6599
$GNGSA,A,3,28,01,30,17,11,19,22,,,,,,2.67,1.43,2.26*19
$GNGS1F
$GPGSV,3,1,12,01,50,055,33,03,19,116,08,06,14,208,,07,17,17,11,35,050,31,13,07,273,12,17,51,284,29*7E
$GPGSV,3,3,12,19,31,30,48,202,11*79
$GLGSV,1,1,00*65
$GNGLL,3558.33636,N,07859.6$GNRMC,002143.00,A,3558.33628,N,07859.65993,W,0.069,,310317,,,A,0.069,N,0.127,K,A*36
$GNGGA,002143.00,3558.33628,N,07859.6599
$GNGSA,A,3,28,01,30,17,11,19,22,03,13,,,,1.76,1.11,1.37*1F
$.37*18
$GPGSV,3,1,12,01,50,055,33,03,19,116,10,06,14,208,,07,18,23,11,35,050,32,13,07,273,12,17,51,284,30*74
$GPGSV,3,3,12,15,26,30,48,202,11*7A
$GLGSV,1,1,00*65
$GNGLL,3558.33628,N,078$GNRMC,002144.00,A,3558.33626,N,07859.65987,W,0.125,,310317,,,A,0.125,N,0.232,K,A*38
$GNGGA,002144.00,3558.33626,N,07859.6598
$GNGSA,A,3,28,01,30,17,11,19,22,03,13,,,,1.76,1.11,1.37*1F
$.37*18
$GPGSV,3,1,12,01,50,055,34,03,19,116,08,06,14,208,,07,18,23,11,35,050,32,13,07,273,12,17,51,284,30*74
$GPGSV,3,3,12,15,26,30,48,202,12*79
$GLGSV,1,1,00*65
$GNGLL,3558.33626,N,078$GNRMC,002145.00,A,3558.33616,N,07859.65966,W,0.407,,310317,,,A,0.754,K,A*38
$GNGGA,002145.00,3558.33616,N,07859.65966,W,1,08,A,3,28,01,30,17,11,19,22,13,,,,,1.94,1.30,1.44*17
$GNGSA,A,3,PGSV,3,1,12,01,50,055,30,03,19,116,06,06,14,209,,07,17,172,*79,050,31,13,07,273,11,17,51,284,29*7C
$GPGSV,3,3,12,19,31,265,2,202,11*7E
$GLGSV,1,1,00*65
$GNGLL,3558.33616,N,07859.65966,W$GNRMC,002146.00,A,3558.33602,N,07859.65932,W,0.642,,310317,,,A,1.189,K,A*3C
$GNGGA,002146.00,3558.33602,N,07859.65932,W,1,09,A,3,28,01,30,17,11,19,22,03,13,,,,1.94,1.30,1.44*14
$GNGSA,A,$GPGSV,3,1,12,01,50,055,29,03,19,116,09,06,14,209,,07,17,172,*735,050,26,13,07,273,11,17,51,284,22*72
$GPGSV,3,3,12,19,31,26548,202,09*70
$GLGSV,1,1,00*65
$GNGLL,3558.33602,N,07859.65932$GNRMC,002147.00,A,3558.33597,N,07859.65934,W,0.127,,310317,,,A,0.235,K,A*3D
$GNGGA,002147.00,3558.33597,N,07859.65934,W,1,08,A,3,28,01,30,17,11,19,22,03,,,,,2.53,1.28,2.19*1C
$GNGSA,A,3,PGSV,3,1,12,01,50,055,34,03,19,116,12,06,14,209,,07,17,172,*78,050,32,13,07,273,08,17,51,284,30*7F
$GPGSV,3,3,12,19,31,265,2,202,09*71
$GLGSV,1,1,00*65
$GNGLL,3558.33597,N,07859.65934,W$GNRMC,002148.00,A,3558.33607,N,07859.65937,W,0.213,,310317,,,A,0.394,K,A*33
$GNGGA,002148.00,3558.33607,N,07859.65937,W,1,08,28,01,30,17,11,19,22,03,,,,,2.53,1.28,2.19*1C
$GNGSA,A,3,,,,,,3,1,12,01,50,055,34,03,19,116,13,06,14,209,,07,17,172,*79
$GP,32,13,07,273,08,17,51,284,30*7E
$GPGSV,3,3,12,19,31,265,22,22,11*7B
$GLGSV,1,1,00*65
$GNGLL,3558.33607,N,07859.65937,W,002$GNRMC,002149.00,A,3558.33627,N,07859.65943,W,0.085,,310317,,,ATG,,T,,M,0.085,N,0.157,K,A*33
$GNGGA,002149.00,3558.33627,N,071,M,,*4A
$GNGSA,A,3,28,01,30,17,11,19,22,03,,,,,2.53,1.28,2.191.28,2.19*19
$GPGSV,3,1,12,01,50,055,34,03,19,116,11,06,14,209,,075,069,23,11,35,050,31,13,07,273,08,17,51,284,29*75
$GPGSV,3,3,2,005,25,30,48,202,10*7A
$GLGSV,1,1,00*65
$GNGLL,3558.33627,N$GNRMC,002150.00,A,3558.33626,N,07859.65940,W,0.296,,310317,,,A96,N,0.549,K,A*38
$GNGGA,002150.00,3558.33626,N,07859.65940,W,NGSA,A,3,28,01,30,17,11,19,22,03,,,,,2.53,1.28,2.19*1C
$GNGSA,
$GPGSV,3,1,12,01,50,055,34,03,19,116,13,06,14,209,,07,17,172,,11,35,050,31,13,07,273,08,17,51,284,29*75
$GPGSV,3,3,12,19,31,30,48,202,07*7C
$GLGSV,1,1,00*65
$GNGLL,3558.33626,N,07859.6$GNRMC,002151.00,A,3558.33616,N,07859.65937,W,0.192,,310317,,,A,0.355,K,A*34
$GNGGA,002151.00,3558.33616,N,07859.65937,W,1,08,A,3,28,01,30,17,11,19,22,03,,,,,2.53,1.28,2.19*1C
$GNGSA,A,3,PGSV,3,1,12,01,50,055,35,03,19,116,14,06,14,209,,07,17,172,12*735,050,31,13,07,273,09,17,51,284,29*72
$GPGSV,3,3,12,19,31,265,23,02,10*7B
$GLGSV,1,1,00*65
$GNGLL,3558.33616,N,07859.65937,W,0$GNRMC,002152.00,A,3558.33624,N,07859.65939,W,0.441,,310317,,,A16,K,A*33
$GNGGA,002152.00,3558.33624,N,07859.65939,W,1,08,1.2,28,01,30,17,11,19,22,03,,,,,2.53,1.28,2.19*1C
$GNGSA,A,3,,,,,,3,1,12,01,50,055,35,03,19,116,13,06,14,209,,07,17,172,10*79
$50,32,13,07,273,10,17,51,284,29*79
$GPGSV,3,3,12,19,31,265,24,02,12*7D
$GLGSV,1,1,00*65
$GNGLL,3558.33624,N,07859.65939,W,0$GNRMC,002153.00,A,3558.33627,N,07859.65946,W,0.288,,310317,,,A88,N,0.533,K,A*3A
$GNGGA,002153.00,3558.33627,N,07859.65946,W,NGSA,A,3,28,01,30,17,11,19,22,03,,,,,2.53,1.28,2.19*1C
$GNGSA,
$GPGSV,3,1,12,01,50,055,36,03,19,116,19,06,14,209,,07,17,172,,11,35,050,32,13,07,273,10,17,51,284,30*72
$GPGSV,3,3,12,19,31,30,48,202,11*7C
$GLGSV,1,1,00*65
$GNGLL,3558.33627,N,07859.6$GNRMC,002154.00,A,3558.33617,N,07859.65949,W,0.059,,310317,,,A59,N,0.109,K,A*39
$GNGGA,002154.00,3558.33617,N,07859.65949,W,NGSA,A,3,28,01,30,17,11,19,07,22,03,,,,2.44,1.16,2.15*1C
$GNGS1E
$GPGSV,3,1,12,01,50,055,29,03,19,116,17,06,14,209,,07,17,1725,11,35,050,28,13,07,273,10,17,51,284,30*7A
$GPGSV,3,3,12,19,26,30,48,202,11*76
$GLGSV,1,1,00*65
$GNGLL,3558.33617,N,07859$GNRMC,002155.00,A,3558.33646,N,07859.65952,W,0.249,,310317,,,A60,K,A*30
$GNGGA,002155.00,3558.33646,N,07859.65952,W,1,09,1.1,28,01,30,17,11,19,07,22,03,,,,2.44,1.16,2.15*1C
$GNGSA,A,3,,,SV,3,1,12,01,50,055,31,03,19,116,12,06,14,209,,07,17,172,10*7C,050,28,13,07,273,10,17,51,284,28*72
$GPGSV,3,3,12,19,31,265,2,202,11*72
$GLGSV,1,1,00*65
$GNGLL,3558.33646,N,07859.65952,W$GNRMC,002156.00,A,3558.33642,N,07859.65950,W,0.548,,310317,,,A,A*32
$GNGGA,002156.00,3558.33642,N,07859.65950,W,1,09,1.16,8501,30,17,11,19,07,22,03,,,,2.44,1.16,2.15*1C
$GNGSA,A,3,,,,,,,,1,12,01,50,055,26,03,19,116,12,06,14,209,,07,17,172,15*7F
$GP,27,13,07,273,09,17,51,284,27*7C
$GPGSV,3,3,12,19,31,265,21,22,09*72
$GLGSV,1,1,00*65
$GNGLL,3558.33642,N,07859.65950,W,002$GNRMC,002157.00,A,3558.33635,N,07859.65956,W,0.406,,310317,,,A,A*3C
$GNGGA,002157.00,3558.33635,N,07859.65956,W,1,09,1.16,8501,30,17,11,19,07,22,03,,,,2.44,1.16,2.15*1C
$GNGSA,A,3,,,,,,,,1,12,01,50,055,27,03,19,116,13,06,14,209,,07,17,172,09*72
$GP,26,13,07,273,09,17,51,284,26*7E
$GPGSV,3,3,12,19,31,265,19,22,11*71
$GLGSV,1,1,00*65
$GNGLL,3558.33635,N,07859.65956,W,002157.$GNRMC,002158.00,A,3558.33629,N,07859.65961,W,0.553,,310317,,,A*7E9
$GNGGA,002158.00,3558.33629,N,07859.65961,W,1,09,1.16,85.6,M0,17,11,19,07,22,03,,,,2.44,1.16,2.15*1C
$GNGSA,A,3,,,,,,,,,,,2,01,50,055,27,03,19,116,10,06,14,209,,07,17,172,09*71
$GPGSV,13,07,273,09,17,51,284,25*7E
$GPGSV,3,3,12,19,31,266,18,22,21,73
$GLGSV,1,1,00*65
$GNGLL,3558.33629,N,07859.65961,W,002158.$GNRMC,002159.00,A,3558.33628,N,07859.65956,W,0.156,,310317,,,A*7BC
$GNGGA,002159.00,3558.33628,N,07859.65956,W,1,09,1.16,85.8,M0,17,11,19,07,22,03,,,,2.44,1.16,2.15*1C
$GNGSA,A,3,,,,,,,,,,,2,01,50,055,27,03,19,116,10,06,14,209,,07,17,172,13*7A
$GPGSV,13,07,273,09,17,51,284,25*74
$GPGSV,3,3,12,19,31,266,17,22,21,7D
$GLGSV,1,1,00*65
$GNGLL,3558.33628,N,07859.65956,W,002159.$GNRMC,002200.00,A,3558.33623,N,07859.65954,W,0.093,,310317,,,A*75
$GNGNGGA,002200.00,3558.33623,N,07859.65954,W,1,09,1.16,85.9,M,-34,11,19,07,22,03,,,,2.44,1.16,2.15*1C
$GNGSA,A,3,,,,,,,,,,,,,2.,50,055,27,03,19,116,13,06,14,209,,07,17,172,10*7A
$GPGSV,3,2,12,03,09,17,51,284,25*74
$GPGSV,3,3,12,19,31,266,17,22,21,090,26,2SV,1,1,00*65
$GNGLL,3558.33623,N,07859.65954,W,002200.00,A,A*6$GNRMC,002201.00,A,3558.33687,N,07859.65962,W,0.076,,310317,,,A*74
$GNVTG,A,002201.00,3558.33687,N,07859.65962,W,1,09,1.16,85.2,M,-34.1,M19,07,22,03,,,,2.44,1.16,2.15*1C
$GNGSA,A,3,,,,,,,,,,,,,2.44,1055,32,03,19,116,16,06,14,209,,07,17,172,13*78
$GPGSV,3,2,12,03,09,17,51,284,32*79
$GPGSV,3,3,12,19,31,266,21,22,21,090,31,2SV,1,1,00*65
$GNGLL,3558.33687,N,07859.65962,W,002201.00,A,A*6$GNRMC,002202.00,A,3558.33690,N,07859.65953,W,0.079,,310317,,,A*7C0
$GNGGA,002202.00,3558.33690,N,07859.65953,W,1,09,1.16,85.4,M0,17,11,19,07,22,03,,,,2.44,1.16,2.15*1C
$GNGSA,A,3,,,,,,,,,,,2,01,50,055,31,03,19,116,16,06,14,209,,07,17,172,13*7B
$GPGSV,13,07,273,09,17,51,284,31*7B
$GPGSV,3,3,12,19,31,266,22,22,21,7F
$GLGSV,1,1,00*65
$GNGLL,3558.33690,N,07859.65953,W,002202.$GNRMC,002203.00,A,3558.33711,N,07859.65955,W,0.060,,310317,,,A*7B
$GNGNGGA,002203.00,3558.33711,N,07859.65955,W,1,09,1.16,85.1,M,-34,11,19,07,22,03,,,,2.44,1.16,2.15*1C
$GNGSA,A,3,,,,,,,,,,,,,2.,50,055,35,03,19,116,16,06,14,209,22,07,17,172,13*7F
$GPGSV,3,,07,273,09,17,51,284,35*78
$GPGSV,3,3,12,19,31,266,25,22,21,09
$GLGSV,1,1,00*65
$GNGLL,3558.33711,N,07859.65955,W,002203.00$GNRMC,002204.00,A,3558.33687,N,07859.65947,W,0.028,,310317,,,A*7D
$GNVTG,,T,,2204.00,3558.33687,N,07859.65947,W,1,09,1.16,85.6,M,-34.1,M,,*47,22,03,,,,2.44,1.16,2.15*1C
$GNGSA,A,3,,,,,,,,,,,,,2.44,1.16,34,03,19,116,15,06,14,209,,07,17,172,12*7C
$GPGSV,3,2,12,08,057,51,284,34*71
$GPGSV,3,3,12,19,31,266,25,22,21,090,34,28,72,0,00*65
$GNGLL,3558.33687,N,07859.65947,W,002204.00,A,A*69
$GNRMC,002205.00,A,3558.33672,N,07859.65928,W,0.033,,310317,,,A*75
$GNVTG,A,002205.00,3558.33672,N,07859.65928,W,1,09,1.16,86.2,M,-34.1,M19,07,22,03,,,,2.44,1.16,2.15*1C
$GNGSA,A,3,,,,,,,,,,,,,2.44,1055,34,03,19,116,15,06,14,209,,07,17,172,12*7C
$GPGSV,3,2,12,03,,17,51,284,34*71
$GPGSV,3,3,12,19,31,266,26,22,21,090,34,28,72,0,00*65
$GNGLL,3558.33672,N,07859.65928,W,002205.00,A,A*6B
$GNRMC,002206.00,A,3558.33661,N,07859.65912,W,0.043,,310317,,,A*7A
$GNVTG,,T,,2206.00,3558.33661,N,07859.65912,W,1,09,1.16,86.9,M,-34.1,M,,*47,22,03,,,,2.44,1.16,2.15*1C
$GNGSA,A,3,,,,,,,,,,,,,2.44,1.16,34,03,19,116,15,06,14,209,,07,17,172,12*7C
$GPGSV,3,2,12,08,057,51,284,34*71
$GPGSV,3,3,12,19,31,266,26,22,21,090,34,28,72,0,00*65
$GNGLL,3558.33661,N,07859.65912,W,002206.00,A,A*63
$GNRMC,002207.00,A,3558.33668,N,07859.65907,W,0.065,,310317,,,A*72
$GNVTG,,T,,M,0..00,3558.33668,N,07859.65907,W,1,08,1.28,87.2,M,-34.1,M,,*4F
$,,,,,2.54,1.28,2.19*1B
$GNGSA,A,3,,,,,,,,,,,,,2.54,1.28,2.19*119,116,13,06,14,209,,07,17,172,04*79
$GPGSV,3,2,12,08,05,069,284,29*7A
$GPGSV,3,3,12,19,31,266,24,22,21,090,31,28,72,005,25,
$GNGLL,3558.33668,N,07859.65907,W,002207.00,A,A*6F
$GNRMC,002208.00,A,3558.33640,N,07859.65903,W,0.421,,310317,,,A*77
$GNVTG,,T,,M,0..00,3558.33640,N,07859.65903,W,1,08,1.28,87.7,M,-34.1,M,,*4B
$,,,,,2.54,1.28,2.19*1B
$GNGSA,A,3,,,,,,,,,,,,,2.54,1.28,2.19*1E
$16,13,06,14,209,,07,17,172,04*71
$GPGSV,3,2,12,08,05,069,23,110*74
$GPGSV,3,3,12,19,31,266,22,22,21,090,30,28,72,005,25,30,4NGLL,3558.33640,N,07859.65903,W,002208.00,A,A*6E
$GNRMC,002209.00,A,3558.33635,N,07859.65902,W,0.141,,310317,,,A*76
$GNVTG,,T,,M,0.141,3558.33635,N,07859.65902,W,1,08,1.28,87.8,M,-34.1,M,,*46
$GNGS,2.54,1.28,2.19*1B
$GNGSA,A,3,,,,,,,,,,,,,2.54,1.28,2.19*1E
$16,13,06,14,209,,07,17,172,04*70
$GPGSV,3,2,12,08,05,069,20,118*77
$GPGSV,3,3,12,19,31,266,20,22,21,090,28,28,72,005,22,30,4NGLL,3558.33635,N,07859.65902,W,002209.00,A,A*6C
$GNRMC,002210.00,A,3558.33621,N,07859.65899,W,0.117,,310317,,,A*7B
$GNVTG,,T,,2210.00,3558.33621,N,07859.65899,W,1,08,1.28,88.0,M,-34.1,M,,*4F
$,,,,,2.54,1.28,2.19*1B
$GNGSA,A,3,,,,,,,,,,,,,2.54,1.28,2.19*119,116,14,06,14,209,,07,17,172,05*7C
$GPGSV,3,2,12,08,05,069,284,29*77
$GPGSV,3,3,12,19,31,266,20,22,21,090,33,28,72,005,22,
$GNGLL,3558.33621,N,07859.65899,W,002210.00,A,A*62
$GNRMC,002211.00,A,3558.33605,N,07859.65892,W,0.041,,310317,,,A*75
$GNVTG,,T,,M,0..00,3558.33605,N,07859.65892,W,1,08,1.28,88.6,M,-34.1,M,,*45
$,,,,,2.54,1.28,2.19*1B
$GNGSA,A,3,,,,,,,,,,,,,2.54,1.28,2.19*119,116,14,06,14,209,,07,17,172,05*7B
$GPGSV,3,2,12,08,05,069,284,32*76
$GPGSV,3,3,12,19,31,266,22,22,21,090,33,28,72,005,25,
$GNGLL,3558.33605,N,07859.65892,W,002211.00,A,A*6E
$GNRMC,002212.00,A,3558.33585,N,07859.65890,W,0.078,,310317,,,A*75
$GNVTG,,T,,M,0..00,3558.33585,N,07859.65890,W,1,08,1.28,89.1,M,-34.1,M,,*49
$,2.54,1.28,2.19*1B
$GNGSA,A,3,,,,,,,,,,,,,2.54,1.28,2.19*1E
$16,14,06,14,209,,07,17,172,05*79
$GPGSV,3,2,12,08,05,069,25,11,35*75
$GPGSV,3,3,12,19,31,266,24,22,21,090,36,28,72,005,27,30$GNGLL,3558.33585,N,07859.65890,W,002212.00,A,A*64
$GNRMC,002213.00,A,3558.33572,N,07859.65884,W,0.210,,310317,,,A*75
$GNVTG,,T,,M,0.210,N,0..33572,N,07859.65884,W,1,08,1.28,89.0,M,-34.1,M,,*44
$GNGSA,A,4,1.28,2.19*1B
$GNGSA,A,3,,,,,,,,,,,,,2.54,1.28,2.19*1E
$GPGS5,06,14,209,18,07,17,172,*77
$GPGSV,3,2,12,08,05,069,26,11,35,79
$GPGSV,3,3,12,19,31,266,25,22,21,090,35,28,72,005,27,30,48,LL,3558.33572,N,07859.65884,W,002213.00,A,A*68
$GNRMC,002214.00,A,3558.33551,N,07859.65877,W,0.051,,310317,,,A*78
$GNVTG,,T,,M,0..00,3558.33551,N,07859.65877,W,1,08,1.28,89.4,M,-34.1,M,,*4A
$,,,,,2.54,1.28,2.19*1B
$GNGSA,A,3,,,,,,,,,,,,,2.54,1.28,2.19*116,20,06,14,209,18,07,17,172,*71
$GPGSV,3,2,12,08,05,069,26,11,34*73
$GPGSV,3,3,12,19,31,266,25,22,21,090,34,28,72,005,27,30$GNGLL,3558.33551,N,07859.65877,W,002214.00,A,A*62
$GNRMC,002215.00,A,3558.33554,N,07859.65876,W,0.287,,310317,,,A*74
$GNVTG,,T,,M,0.287,3558.33554,N,07859.65876,W,1,08,1.28,89.6,M,-34.1,M,,*4D
$GNGS,2.54,1.28,2.19*1B
$GNGSA,A,3,,,,,,,,,,,,,2.54,1.28,2.19*1E
$16,22,06,14,209,18,07,17,172,*72
$GPGSV,3,2,12,08,05,069,26,11,35,73
$GPGSV,3,3,12,19,31,266,25,22,21,090,34,28,72,005,27,30,48,LL,3558.33554,N,07859.65876,W,002215.00,A,A*67
$GNRMC,002216.00,A,3558.33523,N,07859.65871,W,0.274,,310317,,,A*7C
$GNVTG,,T,,M,0.274,N,0..33523,N,07859.65871,W,1,08,1.28,90.4,M,-34.1,M,,*43
$GNGSA,A,4,1.28,2.19*1B
$GNGSA,A,3,,,,,,,,,,,,,2.54,1.28,2.19*1E
$GPGS2,06,14,209,17,07,17,172,*7C
$GPGSV,3,2,12,08,05,069,26,11,35,72
$GPGSV,3,3,12,19,31,266,25,22,21,090,34,28,72,005,27,30,48,LL,3558.33523,N,07859.65871,W,002216.00,A,A*63
$GNRMC,002217.00,A,3558.33502,N,07859.65867,W,0.221,,310317,,,A*79
$GNVTG,,T,,2217.00,3558.33502,N,07859.65867,W,1,09,1.28,90.8,M,-34.1,M,,*42,03,13,,,,2.54,1.28,2.19*19
$GNGSA,A,3,,,,,,,,,,,,,2.54,1.28,35,03,19,116,23,06,14,209,18,07,17,172,*72
$GPGSV,3,2,12,08,05,17,51,284,34*73
$GPGSV,3,3,12,19,31,266,25,22,21,090,34,28,72,1,00*65
$GNGLL,3558.33502,N,07859.65867,W,002217.00,A,A*66
$GNRMC,002218.00,A,3558.33468,N,07859.65868,W,0.157,,310317,,,A*76
$GNVTG,,T,,M,0.157,N,0..33468,N,07859.65868,W,1,09,1.11,91.1,M,-34.1,M,,*44
$GNGSA,A,1.11,1.37*1F
$GNGSA,A,3,,,,,,,,,,,,,1.76,1.11,1.37*18
$GPGSV,06,14,209,17,07,17,172,05*7B
$GPGSV,3,2,12,08,05,069,27,11,35,71
$GPGSV,3,3,12,19,31,266,25,22,21,090,34,28,72,005,27,30,48,LL,3558.33468,N,07859.65868,W,002218.00,A,A*6B
$GNRMC,002219.00,A,3558.33462,N,07859.65875,W,0.236,,310317,,,A*75
$GNVTG,,T,,2219.00,3558.33462,N,07859.65875,W,1,08,1.28,91.2,M,-34.1,M,,*42,03,,,,,2.54,1.28,2.19*1B
$GNGSA,A,3,,,,,,,,,,,,,2.54,1.28,2.,03,19,116,23,06,14,209,17,07,17,172,06*7B
$GPGSV,3,2,12,08,05,17,51,284,33*7F
$GPGSV,3,3,12,19,31,266,24,22,21,090,33,28,72,1,00*65
$GNGLL,3558.33462,N,07859.65875,W,002219.00,A,A*6C
$GNRMC,002220.00,A,3558.33435,N,07859.65871,W,0.447,,310317,,,A*79
$GNVTG,,T,,M,0..00,3558.33435,N,07859.65871,W,1,08,1.28,91.3,M,-34.1,M,,*46
$,,,,,2.54,1.28,2.19*1B
$GNGSA,A,3,,,,,,,,,,,,,2.54,1.28,2.19*119,116,22,06,14,209,16,07,17,172,08*75
$GPGSV,3,2,12,08,05,06951,284,32*73
$GPGSV,3,3,12,19,31,266,24,22,21,090,33,28,72,0050*65
$GNGLL,3558.33435,N,07859.65871,W,002220.00,A,A*60
$GNRMC,002221.00,A,3558.33415,N,07859.65876,W,0.056,,310317,,,A*79
$GNVTG,,T,,M,0.056,3558.33415,N,07859.65876,W,1,09,1.16,91.2,M,-34.1,M,,*4F
$GNGS,,,2.44,1.16,2.15*1C
$GNGSA,A,3,,,,,,,,,,,,,2.44,1.16,2.15*1E,116,22,06,14,209,16,07,17,172,08*77
$GPGSV,3,2,12,08,05,069,2,284,33*73
$GPGSV,3,3,12,19,31,266,24,22,21,090,33,28,72,005,265
$GNGLL,3558.33415,N,07859.65876,W,002221.00,A,A*64
$GNRMC,002222.00,A,3558.33392,N,07859.65877,W,0.215,,310317,,,A*76
$GNVTG,,T,,M,0.215,3558.33392,N,07859.65877,W,1,09,1.16,91.5,M,-34.1,M,,*42
$GNGS,,,2.44,1.16,2.15*1C
$GNGSA,A,3,,,,,,,,,,,,,2.44,1.16,2.15*1E,116,22,06,14,209,16,07,17,172,08*74
$GPGSV,3,2,12,08,05,069,2,284,30*70
$GPGSV,3,3,12,19,31,266,24,22,21,090,33,28,72,005,265
$GNGLL,3558.33392,N,07859.65877,W,002222.00,A,A*6E
$GNRMC,002223.00,A,3558.33388,N,07859.65880,W,0.284,,310317,,,A*7C
$GNVTG,,T,,M,0.284,N,0.525,K,A*,07859.65880,W,1,09,1.16,91.5,M,-34.1,M,,*40
$GNGSA,A,3,28,01,,2.15*1C
$GNGSA,A,3,,,,,,,,,,,,,2.44,1.16,2.15*1E
$GPGSV,3,1,4,209,15,07,17,172,09*75
$GPGSV,3,2,12,08,05,069,25,11,35,050,$GPGSV,3,3,12,19,31,266,22,22,21,090,31,28,72,005,25,30,48,202,558.33388,N,07859.65880,W,002223.00,A,A*6C
$GNRMC,002224.00,A,3558.33403,N,07859.65886,W,0.283,,310317,,,A*7E
$GNVTG,,T,,M,0.283,N,0.525,K,A*,07859.65886,W,1,09,1.16,91.3,M,-34.1,M,,*43
$GNGSA,A,3,28,01,,2.15*1C
$GNGSA,A,3,,,,,,,,,,,,,2.44,1.16,2.15*1E
$GPGSV,3,1,4,209,14,07,17,172,11*7A
$GPGSV,3,2,12,08,05,069,23,11,35,050,$GPGSV,3,3,12,19,31,266,20,22,21,090,30,28,72,005,24,30,48,202,18*733403,N,07859.65886,W,002224.00,A,A*69
$GNRMC,002225.00,A,3558.33421,N,07859.65900,W,0.279,,310317,,,A*75
$GNVTG,,T,,M,0.279,N,0.517,K,A*32
59.65900,W,1,08,1.28,90.7,M,-34.1,M,,*44
$GNGSA,A,3,28,01,30,111
$GNGSA,A,3,,,,,,,,,,,,,2.54,1.28,2.20*14
$GPGSV,3,1,12,01,7,17,172,07*73
$GPGSV,3,2,12,08,05,069,22,11,35,050,31,13,07,2,12,19,31,266,18,22,21,090,29,28,72,005,22,30,48,202,18*76
$GLN,07859.65900,W,002225.00,A,A*67
$GNRMC,002226.00,A,3558.33420,N,07859.65905,W,0.147,,310317,,,A*7C
$GNVTG,,T,,M,0.147,N,0.273,K,A*39
$GNG5905,W,1,09,1.16,90.5,M,-34.1,M,,*4D
$GNGSA,A,3,28,01,30,17,11
$GNGSA,A,3,,,,,,,,,,,,,2.44,1.16,2.15*1E
$GPGSV,3,1,12,01,50,07,17,172,12*78
$GPGSV,3,2,12,08,05,069,21,11,35,050,31,13,07,2732,19,31,266,19,22,21,090,29,28,72,005,22,30,48,202,19*76
$GLGS07859.65905,W,002226.00,A,A*60
$GNRMC,002227.00,A,3558.33420,N,07859.65907,W,0.058,,310317,,,A*70
$GNVTG,,T,,M,0.058,N,0.107,K,A*36
59.65907,W,1,09,1.16,90.2,M,-34.1,M,,*49
$GNGSA,A,3,28,01,30,17,11
$GNGSA,A,3,,,,,,,,,,,,,2.44,1.16,2.15*1E
$GPGSV,3,1,12,01,50,07,17,172,18*7D
$GPGSV,3,2,12,08,05,069,23,11,35,050,32,13,07,3,12,19,31,266,22,22,21,090,29,28,72,005,22,30,48,202,21*75
$0,N,07859.65907,W,002227.00,A,A*63
$GNRMC,002228.00,A,3558.33391,N,07859.65913,W,0.219,,310317,,,A*70
$GNVTG,,T,,M,0.219,N,0.405,K,A*36
59.65913,W,1,09,1.16,90.3,M,-34.1,M,,*4F
$GNGSA,A,3,28,01,30,15*1C
$GNGSA,A,3,,,,,,,,,,,,,2.44,1.16,2.15*1E
$GPGSV,3,1,12,09,11,07,17,172,11*7A
$GPGSV,3,2,12,08,05,069,24,11,35,050,36,1SV,3,3,12,19,31,266,23,22,21,090,33,28,72,005,24,30,48,202,23*733391,N,07859.65913,W,002228.00,A,A*64
$GNRMC,002229.00,A,3558.33394,N,07859.65926,W,0.110,,310317,,,A*78
$GNVTG,,T,,M,0.110,N,0.203,K,A*3C
$GNG5926,W,1,09,1.16,89.7,M,-34.1,M,,*41
$GNGSA,A,3,28,01,30,17,11
$GNGSA,A,3,,,,,,,,,,,,,2.44,1.16,2.15*1E
$GPGSV,3,1,12,01,50,07,17,172,15*7C
$GPGSV,3,2,12,08,05,069,25,11,35,050,36,13,07,12,19,31,266,25,22,21,090,33,28,72,005,26,30,48,202,24*78
$GLN,07859.65926,W,002229.00,A,A*66
$GNRMC,002230.00,A,3558.33390,N,07859.65942,W,0.153,,310317,,,A*71
$GNVTG,,T,,M,0.153,N,0.284,K,A*34
$GNG5942,W,1,09,1.16,89.4,M,-34.1,M,,*4C
$GNGSA,A,3,28,01,30,17,11
$GNGSA,A,3,,,,,,,,,,,,,2.44,1.16,2.15*1E
$GPGSV,3,1,12,01,50,07,17,172,16*7F
$GPGSV,3,2,12,08,05,069,27,11,35,050,35,13,07,12,19,31,266,25,22,21,090,34,28,72,005,26,30,48,202,25*7E
$GLN,07859.65942,W,002230.00,A,A*68
$GNRMC,002231.00,A,3558.33403,N,07859.65962,W,0.269,,310317,,,A*75
$GNVTG,,T,,M,0.269,N,0.499,K,A*34
$GNGGA,0,W,1,09,1.16,89.0,M,-34.1,M,,*46
$GNGSA,A,3,28,01,30,17,11,19,NGSA,A,3,,,,,,,,,,,,,2.44,1.16,2.15*1E
$GPGSV,3,1,12,01,50,05517,172,16*79
$GPGSV,3,2,12,08,05,069,26,11,35,050,35,13,07,27319,31,266,24,22,21,090,32,28,72,005,27,30,48,202,25*78
$GLGSV,859.65962,W,002231.00,A,A*66
$GNRMC,002232.00,A,3558.33416,N,07859.66004,W,0.152,,310317,,,A*73
$GNVTG,,T,,M,0.152,N,0.281,K,A*30
$GNGGA,0,W,1,09,1.16,88.5,M,-34.1,M,,*4F
$GNGSA,A,3,28,01,30,17,11,19,NGSA,A,3,,,,,,,,,,,,,2.44,1.16,2.15*1E
$GPGSV,3,1,12,01,50,055,33,72,16*70
$GPGSV,3,2,12,08,05,069,28,11,35,050,36,13,07,273,,171,266,27,22,21,090,33,28,72,005,28,30,48,202,25*75
$GLGSV,1,1,66004,W,002232.00,A,A*6B
$GNRMC,002233.00,A,3558.33418,N,07859.66014,W,0.276,,310317,,,A*78
$GNVTG,,T,,M,0.276,N,0.510,K,A*3A
$GNGGA,0,W,1,09,1.16,88.6,M,-34.1,M,,*42
$GNGSA,A,3,28,01,30,17,11,19,NGSA,A,3,,,,,,,,,,,,,2.44,1.16,2.15*1E
$GPGSV,3,1,12,01,50,055,36,72,16*76
$GPGSV,3,2,12,08,05,069,28,11,35,050,37,13,07,273,16,,31,266,27,22,21,090,34,28,72,005,29,30,48,202,25*73
$GLGSV,1,9.66014,W,002233.00,A,A*65
$GNRMC,002234.00,A,3558.33414,N,07859.66021,W,0.113,,310317,,,A*75
$GNVTG,,T,,M,0.113,N,0.210,K,A*3D
$GNGGA,00223,09,1.16,88.7,M,-34.1,M,,*4E
$GNGSA,A,3,28,01,30,17,11,19,07,2,A,3,,,,,,,,,,,,,2.44,1.16,2.15*1E
$GPGSV,3,1,12,01,50,055,36,72,15*74
$GPGSV,3,2,12,08,05,069,29,11,35,050,37,13,07,273,15,,31,266,28,22,21,090,34,28,72,005,29,30,48,202,25*7C
$GLGSV,1,9.66021,W,002234.00,A,A*68
$GNRMC,002235.00,A,3558.33413,N,07859.66031,W,0.157,,310317,,,A*72
$GNVTG,,T,,M,0.157,N,0.291,K,A*34
$GNGGA,002235.00,355,88.7,M,-34.1,M,,*49
$GNGSA,A,3,28,01,30,17,11,19,07,22,03,,,,,,,,,,,,,2.44,1.16,2.15*1E
$GPGSV,3,1,12,01,50,055,36,03,20,11
$GPGSV,3,2,12,08,05,069,28,11,35,050,37,13,07,273,,17,51,284,,22,21,090,34,28,72,005,29,30,48,202,25*7C
$GLGSV,1,1,00*65
$002235.00,A,A*6F
$GNRMC,002236.00,A,3558.33415,N,07859.66044,W,0.174,,310317,,,A*74
$GNVTG,,T,,M,0.174,N,0.323,K,A*3D
$GNGGA,002236.001.16,88.6,M,-34.1,M,,*4F
$GNGSA,A,3,28,01,30,17,11,19,07,22,03,,,,,,,,,,,,,2.44,1.16,2.15*1E
$GPGSV,3,1,12,01,50,055,36,03,26*76
$GPGSV,3,2,12,08,04,069,29,11,35,050,37,13,07,273,,17,51,6,28,22,21,090,34,28,72,005,29,30,48,202,25*7C
$GLGSV,1,1,00*65
$002236.00,A,A*68
$GNRMC,002237.00,A,3558.33414,N,07859.66053,W,0.091,,310317,,,A*78
$GNVTG,,T,,M,0.091,N,0.169,K,A*3B
$GNGGA,002237.001.16,88.6,M,-34.1,M,,*49
$GNGSA,A,3,28,01,30,17,11,19,07,22,03,,,,,,,,,,,,,2.44,1.16,2.15*1E
$GPGSV,3,1,12,01,50,055,36,03,2
$GPGSV,3,2,12,08,04,069,29,11,35,050,37,13,07,273,,17,51,284,,22,21,090,34,28,72,005,29,30,48,202,25*7C
$GLGSV,1,1,00*65
$002237.00,A,A*6E
$GNRMC,002238.00,A,3558.33418,N,07859.66057,W,0.155,,310317,,,A*76
$GNVTG,,T,,M,0.155,N,0.287,K,A*31
$GNGGA,002238.001.16,88.7,M,-34.1,M,,*4F
$GNGSA,A,3,28,01,30,17,11,19,07,22,03,,,,,,,,,,,,,2.44,1.16,2.15*1E
$GPGSV,3,1,12,01,50,055,32,03,2
$GPGSV,3,2,12,08,04,069,28,11,35,050,35,13,07,273,,17,51,284,,22,21,090,30,28,72,005,28,30,48,202,23*71
$GLGSV,1,1,00*65
$002238.00,A,A*69
$GNRMC,002239.00,A,3558.33405,N,07859.66067,W,0.153,,310317,,,A*7E
$GNVTG,,T,,M,0.153,N,0.283,K,A*33
$GNGGA,002239.00,355,89.0,M,-34.1,M,,*47
$GNGSA,A,3,28,01,30,17,11,19,07,22,03,,,,,,,,,,,,,2.44,1.16,2.15*1E
$GPGSV,3,1,12,01,50,055,36,03,20,11
$GPGSV,3,2,12,08,04,069,28,11,34,050,38,13,07,273,,17,51,284,,22,21,090,34,28,72,005,29,30,48,202,23*75
$GLGSV,1,1,00*65
$002239.00,A,A*67
$GNRMC,002240.00,A,3558.33404,N,07859.66071,W,0.050,,310317,,,A*74
$GNVTG,,T,,M,0.050,N,0.093,K,A*32
$GNGGA,002240.00,355,89.1,M,-34.1,M,,*4E
$GNGSA,A,3,28,01,30,17,11,19,07,22,03,,,,,,,,,,,,,2.44,1.16,2.15*1E
$GPGSV,3,1,12,01,50,055,35,03,20,11
$GPGSV,3,2,12,08,04,069,29,11,34,050,35,13,07,273,,17,51,284,,22,21,090,34,28,72,005,29,30,48,202,24*72
$GLGSV,1,1,00*65
$002240.00,A,A*6F
$GNRMC,002241.00,A,3558.33405,N,07859.66072,W,0.110,,310317,,,A*72
$GNVTG,,T,,M,0.110,N,0.204,K,A*3B
$GNGGA,002241.00,3552,M,-34.1,M,,*4E
$GNGSA,A,3,28,01,30,17,11,19,07,22,03,,,,2.44,,,,,2.44,1.16,2.15*1E
$GPGSV,3,1,12,01,50,055,35,03,20,116,27PGSV,3,2,12,08,04,069,29,11,34,050,36,13,06,272,,17,51,284,37*721,090,33,28,72,005,29,30,48,202,24*75
$GLGSV,1,1,00*65
$GNGL41.00,A,A*6C
$GNRMC,002242.00,A,3558.33399,N,07859.66074,W,0.177,,310317,,,A*74
$GNVTG,,T,,M,0.177,N,0.328,K,A*35
$GNGGA,002242.00,3555,M,-34.1,M,,*4E
$GNGSA,A,3,28,01,30,17,11,19,07,22,03,,,,2.44,,,,,2.44,1.16,2.15*1E
$GPGSV,3,1,12,01,50,055,34,03,20,116,27PGSV,3,2,12,08,04,069,29,11,34,050,36,13,06,272,,17,51,284,38*721,090,33,28,72,005,28,30,48,202,24*74
$GLGSV,1,1,00*65
$GNGL42.00,A,A*6B
$GNRMC,002243.00,A,3558.33392,N,07859.66072,W,0.035,,310317,,,A*7F
$GNVTG,,T,,M,0.035,N,0.065,K,A*38
$GNGGA,002243.00,355,89.9,M,-34.1,M,,*4E
$GNGSA,A,3,28,01,30,17,11,19,07,22,03,,,,,,,,,,,,,2.44,1.16,2.15*1E
$GPGSV,3,1,12,01,50,055,34,03,20,116,26PGSV,3,2,12,08,04,069,29,11,34,050,36,13,06,272,17,17,51,284,382,21,090,33,28,72,005,28,30,48,202,24*75
$GLGSV,1,1,00*65
$GN2243.00,A,A*67
$GNRMC,002244.00,A,3558.33381,N,07859.66066,W,0.058,,310317,,,A$GNVTG,,T,,M,0.058,N,0.107,K,A*36
$GNGGA,002244.00,3558.33381,-34.1,M,,*49
$GNGSA,A,3,28,01,30,17,11,19,07,22,03,,,,2.44,1.1,2.44,1.16,2.15*1E
$GPGSV,3,1,12,01,50,055,34,03,20,116,27,06,,3,2,12,08,04,069,29,11,34,050,37,13,06,272,,17,51,284,38*71
$90,33,28,72,005,28,30,48,202,25*74
$GLGSV,1,1,00*65
$GNGLL,350,A,A*67
$GNRMC,002245.00,A,3558.33366,N,07859.66059,W,0.140,,310317,,,ATG,,T,,M,0.140,N,0.260,K,A*3C
$GNGGA,002245.00,3558.33366,N,071,M,,*4A
$GNGSA,A,3,28,01,30,17,11,19,07,22,03,,,,2.44,1.16,2.4,1.16,2.15*1E
$GPGSV,3,1,12,01,50,055,34,03,20,116,27,06,14,2,12,08,04,069,30,11,34,050,37,13,06,272,,17,51,285,38*78
$GPGS3,28,72,005,29,30,48,202,25*74
$GLGSV,1,1,00*65
$GNGLL,3558.3A*63
$GNRMC,002246.00,A,3558.33354,N,07859.66054,W,0.046,,310317,,,ATG,,T,,M,0.046,N,0.085,K,A*32
$GNGGA,002246.00,3558.33354,N,071,M,,*41
$GNGSA,A,3,28,01,30,17,11,19,07,22,03,,,,2.44,1.16,2.4,1.16,2.15*1E
$GPGSV,3,1,12,01,50,055,34,03,20,116,26,06,14,2,12,08,04,069,30,11,34,050,37,13,06,272,,17,51,285,38*78
$GPGS3,28,72,005,29,30,48,202,25*74
$GLGSV,1,1,00*65
$GNGLL,3558.3A*6C
$GNRMC,002247.00,A,3558.33340,N,07859.66049,W,0.023,,310317,,,ATG,,T,,M,0.023,N,0.043,K,A*3B
$GNGGA,002247.00,3558.33340,N,071,M,,*44
$GNGSA,A,3,28,01,30,17,11,19,07,22,03,,,,2.44,1.16,2.4,1.16,2.15*1E
$GPGSV,3,1,12,01,50,055,35,03,20,116,26,06,14,2,12,08,04,069,29,11,34,050,37,13,06,272,,17,51,285,38*70
$GPGS3,28,72,005,29,30,48,202,26*74
$GLGSV,1,1,00*65
$GNGLL,3558.3A*64
$GNRMC,002248.00,A,3558.33331,N,07859.66040,W,0.083,,310317,,,ATG,,T,,M,0.083,N,0.154,K,A*36
$GNGGA,002248.00,3558.33331,N,071,M,,*4A
$GNGSA,A,3,28,01,30,17,11,19,07,22,03,,,,2.44,1.16,2.4,1.16,2.15*1E
$GPGSV,3,1,12,01,50,055,36,03,20,116,26,06,14,2,12,08,04,069,23,11,34,050,37,13,06,272,,17,51,285,33*71
$GPGS1,2,72,005,22,30,48,202,26*7D
$GLGSV,1,1,00*65
$GNGLL,3558.33331
$GNRMC,002249.00,A,3558.33330,N,07859.66047,W,0.105,,310317,,,A*79
$GNVTG,,T,,M,0.105,N,0.194,K,A*35
$GNGGA,002249.00,355,92.6,M,-34.1,M,,*4F
$GNGSA,A,3,28,01,30,17,11,19,07,22,03,,,,,,,,,,,,,2.44,1.16,2.15*1E
$GPGSV,3,1,12,01,50,055,36,03,20,11
$GPGSV,3,2,12,08,04,069,26,11,34,050,35,13,06,272,,17,51,285,,22,21,090,34,28,72,005,30,30,48,202,28*78
$GLGSV,1,1,00*65
$002249.00,A,A*63
$GNRMC,002250.00,A,3558.33326,N,07859.66041,W,0.072,,310317,,,A$GNVTG,,T,,M,0.072,N,0.133,K,A*39
$GNGGA,002250.00,3558.33326,-34.1,M,,*41
$GNGSA,A,3,28,01,30,17,11,19,07,22,03,,,,2.44,1.1,2.44,1.16,2.15*1E
$GPGSV,3,1,12,01,50,055,35,03,20,116,25,06,,3,2,12,08,04,069,27,11,34,050,35,13,06,272,,17,51,285,36*72
$89,34,28,72,005,29,30,48,202,28*71
$GLGSV,1,1,00*65
$GNGLL,350,A,A*6A
$GNRMC,002251.00,A,3558.33312,N,07859.66024,W,0.085,,310317,,,AT,,M,0.085,N,0.157,K,A*33
$GNGGA,002251.00,3558.33312,N,07859.,*45
$GNGSA,A,3,28,01,30,17,11,19,07,22,03,,,,2.54,1.27,2.20*127,2.20*1B
$GPGSV,3,1,12,01,50,055,36,03,20,116,26,06,14,209,108,04,069,28,11,34,050,38,13,06,272,,17,51,285,39*7F
$GPGSV,3,,72,005,28,30,48,202,28*72
$GLGSV,1,1,00*65
$GNGLL,3558.33312
$GNRMC,002252.00,A,3558.33306,N,07859.66022,W,0.127,,310317,,,AT,,M,0.127,N,0.234,K,A*3C
$GNGGA,002252.00,3558.33306,N,07859.,*43
$GNGSA,A,3,28,01,30,17,11,19,07,22,03,,,,2.54,1.27,2.20*127,2.20*1B
$GPGSV,3,1,12,01,50,055,36,03,20,116,27,06,14,209,108,04,069,28,11,34,050,38,13,06,272,18,17,51,285,39*76
$GPGSV,28,72,005,28,30,48,202,27*7C
$GLGSV,1,1,00*65
$GNGLL,3558.3336F
$GNRMC,002253.00,A,3558.33302,N,07859.66023,W,0.028,,310317,,,A7F
$GNVTG,,T,,M,0.028,N,0.052,K,A*30
$GNGGA,002253.00,3558.337,M,-34.1,M,,*45
$GNGSA,A,3,28,01,30,17,11,19,07,22,03,,,,2.54,,,,,2.54,1.27,2.20*1B
$GPGSV,3,1,12,01,50,055,36,03,20,116,27PGSV,3,2,12,08,04,069,28,11,34,050,37,13,06,272,17,17,51,285,392,21,089,33,28,72,005,27,30,48,202,28*73
$GLGSV,1,1,00*65
$GN.00,A,A*6B
$GNRMC,002254.00,A,3558.33301,N,07859.66019,W,0.031,,310317,,,A7A
$GNVTG,,T,,M,0.031,N,0.058,K,A*32
$GNGGA,002254.00,3558.337,M,-34.1,M,,*48
$GNGSA,A,3,28,01,30,17,11,19,07,22,03,,,,2.54,,,,,2.54,1.27,2.20*1B
$GPGSV,3,1,12,01,50,055,36,03,20,116,28,06,,3,2,12,08,04,069,28,11,34,050,38,13,06,272,15,17,51,285,39*7B,089,33,28,72,005,27,30,48,202,28*73
$GLGSV,1,1,00*65
$GNGLL,.00,A,A*66
$GNRMC,002255.00,A,3558.33302,N,07859.66019,W,0.058,,310317,,,A,0.058,N,0.108,K,A*39
$GNGGA,002255.00,3558.33302,N,07859.6601
$GNGSA,A,3,28,01,30,17,11,19,07,22,03,,,,2.54,1.27,2.20*19
$.20*1B
$GPGSV,3,1,12,01,50,055,36,03,20,116,28,06,14,209,15,074,069,27,11,34,050,38,13,06,272,14,17,51,285,39*75
$GPGSV,3,3,2,005,28,30,48,202,28*7C
$GLGSV,1,1,00*65
$GNGLL,3558.33302,N$GNRMC,002256.00,A,3558.33303,N,07859.66022,W,0.056,,310317,,,A,0.056,N,0.104,K,A*3B
$GNGGA,002256.00,3558.33303,N,07859.6602
$GNGSA,A,3,28,01,30,17,11,19,07,22,03,,,,2.54,1.27,2.20*19
$GNGS1B
$GPGSV,3,1,12,01,50,055,36,03,20,116,28,06,14,209,15,07,16,9,27,11,34,050,38,13,06,272,12,17,51,285,39*73
$GPGSV,3,3,12,16,28,30,48,202,28*7F
$GLGSV,1,1,00*65
$GNGLL,3558.33303,N,078$GNRMC,002257.00,A,3558.33304,N,07859.66022,W,0.056,,310317,,,A,0.056,N,0.104,K,A*3B
$GNGGA,002257.00,3558.33304,N,07859.6602
$GNGSA,A,3,28,01,30,17,11,19,07,22,03,13,,,2.54,1.27,2.20*1B,2.20*1B
$GPGSV,3,1,12,01,50,055,36,03,20,116,28,06,14,209,15,,04,069,27,11,34,050,37,13,06,272,12,17,51,285,39*7C
$GPGSV,3,,72,006,27,30,48,202,28*70
$GLGSV,1,1,00*65
$GNGLL,3558.33304$GNRMC,002258.00,A,3558.33305,N,07859.66020,W,0.060,,310317,,,A60,N,0.110,K,A*3B
$GNGGA,002258.00,3558.33305,N,07859.66020,W,NGSA,A,3,28,01,30,17,11,19,07,22,03,13,,,2.54,1.27,2.20*1B
$GN0*1B
$GPGSV,3,1,12,01,50,055,34,03,20,116,27,06,14,209,15,07,1069,26,11,34,050,35,13,06,272,13,17,51,285,35*72
$GPGSV,3,3,12006,27,30,48,202,27*71
$GLGSV,1,1,00*65
$GNGLL,3558.33305,N,0$GNRMC,002259.00,A,3558.33314,N,07859.66023,W,0.104,,310317,,,AT,,M,0.104,N,0.193,K,A*33
$GNGGA,002259.00,3558.33314,N,07859.,*4D
$GNGSA,A,3,28,01,30,17,11,19,07,22,03,13,,,2.44,1.16,2.151.16,2.15*1E
$GPGSV,3,1,12,01,50,055,37,03,20,116,28,06,14,2092,08,04,069,27,11,34,050,37,13,06,272,12,17,51,285,39*7C
$GPGS3,28,72,006,27,30,48,202,28*70
$GLGSV,1,1,00*65
$GNGLL,3558.3A*66
$GNRMC,002300.00,A,3558.33320,N,07859.66026,W,0.055,,310317,,,A,0.102,K,A*3E
$GNGGA,002300.00,3558.33320,N,07859.66026,W,1,10,A,3,28,01,30,17,11,19,07,22,03,13,,,2.44,1.16,2.15*1E
$GNGSA,
$GPGSV,3,1,12,01,50,055,36,03,20,116,28,06,14,209,14,07,16,1726,11,34,050,36,13,06,272,10,17,51,285,37*70
$GPGSV,3,3,12,19,26,30,48,202,27*70
$GLGSV,1,1,00*65
$GNGLL,3558.33320,N,07859$GNRMC,002301.00,A,3558.33326,N,07859.66029,W,0.005,,310317,,,A10,K,A*39
$GNGGA,002301.00,3558.33326,N,07859.66029,W,1,09,1.1,28,01,30,17,11,19,07,22,03,,,,2.44,1.16,2.15*1C
$GNGSA,A,3,,,SV,3,1,12,01,50,055,36,03,20,116,28,06,14,209,13,07,16,172,18*734,050,36,13,06,272,08,17,51,285,37*79
$GPGSV,3,3,12,19,32,26648,202,27*71
$GLGSV,1,1,00*65
$GNGLL,3558.33326,N,07859.66029$GNRMC,002302.00,A,3558.33332,N,07859.66033,W,0.053,,310317,,,A,0.098,K,A*3A
$GNGGA,002302.00,3558.33332,N,07859.66033,W,1,09,1.1,28,01,30,17,11,19,07,22,03,,,,2.44,1.16,2.15*1C
$GNGSA,A,3,,,SV,3,1,12,01,50,055,36,03,20,116,28,06,14,209,,07,16,172,17*7E,050,36,13,06,272,07,17,51,285,37*76
$GPGSV,3,3,12,19,32,266,2,202,27*71
$GLGSV,1,1,00*65
$GNGLL,3558.33332,N,07859.66033,W$GNRMC,002303.00,A,3558.33344,N,07859.66040,W,0.036,,310317,,,A67,K,A*39
$GNGGA,002303.00,3558.33344,N,07859.66040,W,1,09,1.1,28,01,30,17,11,19,07,22,03,,,,2.44,1.16,2.15*1C
$GNGSA,A,3,,,SV,3,1,12,01,50,055,36,03,20,116,29,06,14,209,,07,16,172,17*7F,050,34,13,06,272,09,17,51,285,37*7A
$GPGSV,3,3,12,19,32,266,2,202,27*70
$GLGSV,1,1,00*65
$GNGLL,3558.33344,N,07859.66040,W$GNRMC,002304.00,A,3558.33357,N,07859.66049,W,0.039,,310317,,,A72,K,A*32
$GNGGA,002304.00,3558.33357,N,07859.66049,W,1,09,1.1,28,01,30,17,11,19,07,22,03,,,,2.44,1.16,2.15*1C
$GNGSA,A,3,,,SV,3,1,12,01,50,055,37,03,20,116,30,06,14,209,,07,16,172,17*76,050,37,13,06,272,20,17,51,285,39*7C
$GPGSV,3,3,12,19,32,266,2,202,27*70
$GLGSV,1,1,00*65
$GNGLL,3558.33357,N,07859.66049,W,002$GNRMC,002305.00,A,3558.33375,N,07859.66059,W,0.033,,310317,,,A,A*39
$GNGGA,002305.00,3558.33375,N,07859.66059,W,1,09,1.16,9201,30,17,11,19,07,22,03,,,,2.44,1.16,2.15*1C
$GNGSA,A,3,,,,,,,,1,12,01,50,055,37,03,20,116,31,06,14,209,,07,16,172,18*78
$GP,37,13,06,272,18,17,51,285,39*77
$GPGSV,3,3,12,19,32,266,26,22,27*71
$GLGSV,1,1,00*65
$GNGLL,3558.33375,N,07859.66059,W,002$GNRMC,002306.00,A,3558.33387,N,07859.66068,W,0.114,,310317,,,A*72B
$GNGGA,002306.00,3558.33387,N,07859.66068,W,1,09,1.16,91.9,M0,17,11,19,07,22,03,,,,2.44,1.16,2.15*1C
$GNGSA,A,3,,,,,,,,,,,2,01,50,055,37,03,20,116,31,06,14,209,,07,16,172,19*79
$GPGSV,13,06,272,,17,51,285,39*7E
$GPGSV,3,3,12,19,32,266,26,22,21,08
$GLGSV,1,1,00*65
$GNGLL,3558.33387,N,07859.66068,W,002306.00$GNRMC,002307.00,A,3558.33405,N,07859.66080,W,0.039,,310317,,,A*763
$GNGGA,002307.00,3558.33405,N,07859.66080,W,1,09,1.16,91.4,M0,17,11,19,07,22,03,,,,2.44,1.16,2.15*1C
$GNGSA,A,3,,,,,,,,,,,2,01,50,055,38,03,20,116,32,06,14,209,,07,16,172,19*75
$GPGSV,13,06,272,,17,51,285,39*7E
$GPGSV,3,3,12,19,32,266,26,22,21,08
$GLGSV,1,1,00*65
$GNGLL,3558.33405,N,07859.66080,W,002307.00$GNRMC,002308.00,A,3558.33429,N,07859.66088,W,0.751,,310317,,,A*76
$GNGNGGA,002308.00,3558.33429,N,07859.66088,W,1,09,1.16,91.0,M,-34,11,19,07,22,03,,,,2.44,1.16,2.15*1C
$GNGSA,A,3,,,,,,,,,,,,,2.,50,055,28,03,20,116,24,06,14,209,,07,16,172,18*72
$GPGSV,3,2,6,272,15,17,51,285,29*78
$GPGSV,3,3,12,19,32,266,25,22,21,089,$GLGSV,1,1,00*65
$GNGLL,3558.33429,N,07859.66088,W,002308.00,A$GNRMC,002309.00,A,3558.33443,N,07859.66090,W,0.337,,310317,,,A*76B
$GNGGA,002309.00,3558.33443,N,07859.66090,W,1,09,1.16,90.9,M0,17,11,19,07,22,03,,,,2.44,1.16,2.15*1C
$GNGSA,A,3,,,,,,,,,,,2,01,50,055,32,03,20,116,25,06,14,209,,07,16,172,14*74
$GPGSV,13,06,272,11,17,51,285,34*71
$GPGSV,3,3,12,19,32,266,23,22,21,77
$GLGSV,1,1,00*65
$GNGLL,3558.33443,N,07859.66090,W,002309.$GNRMC,002310.00,A,3558.33459,N,07859.66103,W,0.112,,310317,,,A*7B5
$GNGGA,002310.00,3558.33459,N,07859.66103,W,1,09,1.16,90.5,M,-34,11,19,07,22,03,,,,2.44,1.16,2.15*1C
$GNGSA,A,3,,,,,,,,,,,,,2.,50,055,36,03,20,116,32,06,14,209,,07,16,172,14*76
$GPGSV,3,2,6,272,,17,51,285,37*77
$GPGSV,3,3,12,19,32,266,25,22,21,089,33LGSV,1,1,00*65
$GNGLL,3558.33459,N,07859.66103,W,002310.00,A,A$GNRMC,002311.00,A,3558.33469,N,07859.66115,W,0.116,,310317,,,A*7AC
$GNGGA,002311.00,3558.33469,N,07859.66115,W,1,09,1.16,90.2,M0,17,11,19,07,22,03,,,,2.44,1.16,2.15*1C
$GNGSA,A,3,,,,,,,,,,,2,01,50,055,32,03,20,116,31,06,14,209,,07,16,172,15*70
$GPGSV,6,272,,17,51,285,34*71
