,120317,,,D*76
$GNVTG,,T,,M,0.717,N,1.327,K,D*3E
$GNGGA,035642.00,3725.48442,N,12210.64144,W,2,08,1.03,21.4,M,-30.0,M,,0000*48
$GNGSA,A,3,17,24,19,51,12,02,,,,,,,3.36,1.03,3.20*14
$GNGSA,A,3,80,84,,,,,,,,,,,3.36,1.03,3.20*1D
$GPGSV,4,1SV,2,2,07,82,29,033,,83,75,323,,84,32,234,08*58
$GNGLL,3725.48371,N,12210.64087,W,035645.00,A,D*66
$GNRMC,035646.00,A,3725.48361,N,12210.64077,W,0.965,,120317,,,D*7E
$GNVTG,,T,,M,0.965,N,1.787,K,D*3B
$GNGGA,035646.00,3725.48361,N,12210.64077,W,2,09,1.00,23.4,M,-30.0,M,,0000*4B
$GNGSA,A,3,17,24,06,19,51,12,02,,,,,,2.86,1.00,2.68*16
$GNGSA,A,3,80,84,,,,,,,,,,,2.86,1.00,2.68*19
$GPGSV,4,1,14,02,52,179,29,03,01,036,,06,63,093,15,12,43,315,15*75
$GPGSV,4,2,14,15,01,226,11,17,29,053,14,19,47,043,10,24,57,263,11*79
$GPGSV,4,3,14,25,04,301,,28,07,108,,32,00,321,,46,42,142,*7C
$GPGSV,4,4,14,48,45,197,,51,44,156,34*7F
$GLGSV,2,1,07,66,00,031,,73,78,329,,74,17,328,,80,49,148,31*66
$GLGSV,2,2,07,82,29,033,,83,75,323,,84,32,234,13*52
$GNGLL,3725.48361,N,12210.64077,W,035646.00,A,D*6B
$GNRMC,035647.00,A,3725.48332,N,12210.64064,W,0.856,,120317,,,D*7A
$GNVTG,,T,,M,0.856,N,1.586,K,D*39
$GNGGA,035647.00,3725.48332,N,12210.64064,W,2,09,1.00,24.1,M,-30.0,M,,0000*4C
$GNGSA,A,3,17,24,06,19,51,12,02,,,,,,2.86,1.00,2.68*16
$GNGSA,A,3,80,84,,,,,,,,,,,2.86,1.00,2.68*19
$GPGSV,4,1,14,02,52,179,29,03,01,036,,06,63,093,15,12,43,315,16*76
$GPGSV,4,2,14,15,01,226,09,17,29,053,13,19,47,043,10,24,57,263,09*7E
$GPGSV,4,3,14,25,04,301,,28,07,108,,32,00,321,,46,42,142,*7C
$GPGSV,4,4,14,48,45,197,,51,44,156,33*78
$GLGSV,2,1,07,66,00,031,,73,78,329,,74,17,328,,80,49,148,31*66
$GLGSV,2,2,07,82,29,033,,83,75,323,,84,32,234,17*56
$GNGLL,3725.48332,N,12210.64064,W,035647.00,A,D*6E
$GNRMC,035648.00,A,3725.48329,N,12210.64026,W,0.453,,120317,,,D*70
$GNVTG,,T,,M,0.453,N,0.839,K,D*38
$GNGGA,035648.00,3725.48329,N,12210.64026,W,2,09,1.00,24.5,M,-30.0,M,,0000*4B
$GNGSA,A,3,17,24,06,19,51,12,02,,,,,,2.86,1.00,2.68*16
$GNGSA,A,3,80,84,,,,,,,,,,,2.86,1.00,2.68*19
$GPGSV,4,1,14,02,52,179,29,03,01,036,,06,63,093,14,12,43,315,16*77
$GPGSV,4,2,14,15,01,226,10,17,29,053,12,19,47,043,10,24,57,263,08*76
$GPGSV,4,3,14,25,04,301,,28,07,108,,32,00,321,,46,42,142,*7C
$GPGSV,4,4,14,48,45,197,,51,44,156,34*7F
$GLGSV,2,1,07,66,00,030,,73,78,329,,74,17,328,,80,49,148,32*64
$GLGSV,2,2,07,82,29,033,,83,75,323,,84,32,234,19*58
$GNGLL,3725.48329,N,12210.64026,W,035648.00,A,D*6D
$GNRMC,035649.00,A,3725.48297,N,12210.63988,W,1.005,,120317,,,D*79
$GNVTG,,T,,M,1.005,N,1.862,K,D*31
$GNGGA,035649.00,3725.48297,N,12210.63988,W,2,09,1.00,24.9,M,-30.0,M,,0000*48
$GNGSA,A,3,17,24,06,19,51,12,02,,,,,,2.86,1.00,2.68*16
$GNGSA,A,3,80,84,,,,,,,,,,,2.86,1.00,2.68*19
$GPGSV,4,1,14,02,52,179,29,03,01,036,,06,63,093,13,12,43,315,15*73
$GPGSV,4,2,14,15,01,226,12,17,29,053,12,19,47,043,09,24,57,263,12*77
$GPGSV,4,3,14,25,04,301,,28,07,108,,32,00,321,,46,42,142,*7C
$GPGSV,4,4,14,48,45,197,,51,44,156,34*7F
$GLGSV,2,1,07,66,00,030,,73,78,329,,74,17,328,,80,49,148,32*64
$GLGSV,2,2,07,82,29,033,,83,75,323,,84,32,234,20*52
$GNGLL,3725.48297,N,12210.63988,W,035649.00,A,D*62
$GNRMC,035650.00,A,3725.48281,N,12210.63987,W,1.221,,120317,,,D*7D
$GNVTG,,T,,M,1.221,N,2.261,K,D*3F
$GNGGA,035650.00,3725.48281,N,12210.63987,W,2,09,1.00,25.5,M,-30.0,M,,0000*45
$GNGSA,A,3,17,24,06,19,51,12,02,,,,,,2.86,1.00,2.68*16
$GNGSA,A,3,80,84,,,,,,,,,,,2.86,1.00,2.68*19
$GPGSV,4,1,14,02,52,179,29,03,01,036,,06,63,093,14,12,43,315,13*72
$GPGSV,4,2,14,15,01,226,09,17,29,053,10,19,47,043,11,24,57,263,12*76
$GPGSV,4,3,14,25,04,301,,28,07,108,,32,00,321,,46,42,142,*7C
$GPGSV,4,4,14,48,45,197,,51,44,156,33*78
$GLGSV,2,1,07,66,00,030,,73,78,329,,74,17,328,,80,49,148,32*64
$GLGSV,2,2,07,82,29,033,,83,75,323,,84,32,234,19*58
$GNGLL,3725.48281,N,12210.63987,W,035650.00,A,D*62
$GNRMC,035651.00,A,3725.48312,N,12210.63950,W,0.911,,120317,,,D*74
$GNVTG,,T,,M,0.911,N,1.687,K,D*39
$GNGGA,035651.00,3725.48312,N,12210.63950,W,2,09,1.00,26.2,M,-30.0,M,,0000*41
$GNGSA,A,3,17,24,06,19,51,12,02,,,,,,2.86,1.00,2.68*16
$GNGSA,A,3,80,84,,,,,,,,,,,2.86,1.00,2.68*19
$GPGSV,4,1,14,02,52,179,29,03,01,036,,06,63,093,14,12,43,315,14*75
$GPGSV,4,2,14,15,01,226,08,17,29,053,08,19,47,043,08,24,57,263,10*74
$GPGSV,4,3,14,25,04,301,,28,07,108,,32,00,321,,46,42,142,*7C
$GPGSV,4,4,14,48,45,197,,51,44,156,33*78
$GLGSV,2,1,07,66,00,030,,73,78,329,,74,17,328,,80,49,148,31*67
$GLGSV,2,2,07,82,29,033,,83,75,323,,84,32,234,19*58
$GNGLL,3725.48312,N,12210.63950,W,035651.00,A,D*62
$GNRMC,035652.00,A,3725.48327,N,12210.63927,W,0.578,,120317,,,D*72
$GNVTG,,T,,M,0.578,N,1.070,K,D*34
$GNGGA,035652.00,3725.48327,N,12210.63927,W,2,09,1.00,27.5,M,-30.0,M,,0000*42
$GNGSA,A,3,17,24,06,19,51,12,02,,,,,,2.86,1.00,2.68*16
$GNGSA,A,3,80,84,,,,,,,,,,,2.86,1.00,2.68*19
$GPGSV,4,1,14,02,52,179,28,03,01,036,,06,63,093,13,12,43,315,14*73
$GPGSV,4,2,14,15,01,226,10,17,29,053,10,19,47,043,07,24,57,263,10*7B
$GPGSV,4,3,14,25,04,301,,28,07,108,,32,00,321,,46,42,142,*7C
$GPGSV,4,4,14,48,45,197,,51,44,156,32*79
$GLGSV,2,1,07,66,00,030,,73,78,329,,74,17,328,,80,49,148,31*67
$GLGSV,2,2,07,82,29,033,,83,75,323,,84,32,234,19*58
$GNGLL,3725.48327,N,12210.63927,W,035652.00,A,D*67
$GNRMC,035653.00,A,3725.48319,N,12210.63902,W,0.471,,120317,,,D*71
$GNVTG,,T,,M,0.471,N,0.873,K,D*36
$GNGGA,035653.00,3725.48319,N,12210.63902,W,2,09,1.00,28.4,M,-30.0,M,,0000*47
$GNGSA,A,3,17,24,06,19,51,12,02,,,,,,2.86,1.00,2.68*16
$GNGSA,A,3,80,84,,,,,,,,,,,2.86,1.00,2.68*19
$GPGSV,4,1,14,02,52,179,28,03,01,036,,06,63,093,13,12,43,315,14*73
$GPGSV,4,2,14,15,01,226,09,17,29,053,12,19,47,043,09,24,57,263,10*7F
$GPGSV,4,3,14,25,04,301,,28,07,108,,32,00,321,,46,42,142,*7C
$GPGSV,4,4,14,48,45,197,,51,44,156,32*79
$GLGSV,2,1,07,66,00,030,,73,78,329,,74,17,328,,80,49,148,31*67
$GLGSV,2,2,07,82,29,033,,83,75,323,,84,32,234,19*58
$GNGLL,3725.48319,N,12210.63902,W,035653.00,A,D*6C
$GNRMC,035654.00,A,3725.48211,N,12210.63934,W,0.786,,120317,,,D*71
$GNVTG,,T,,M,0.786,N,1.456,K,D*37
$GNGGA,035654.00,3725.48211,N,12210.63934,W,2,09,1.00,30.3,M,-30.0,M,,0000*42
$GNGSA,A,3,17,24,06,19,51,12,02,,,,,,2.86,1.00,2.68*16
$GNGSA,A,3,80,Wow you're going too fast.
84,,,,,,,,,,,2.86,1.00,2.68*19
$GPGSV,4,1,14,02Wow you're going too fast.
Wow you're going too fast.
Wow you're going too fast.
,52,179,28,03,01,036,,06,63,093,13,12,43,315,15*Wow you're going too fast.
Wow you're going too fast.
Wow you're going too fast.
72
$GPGSV,4,2,14,15,01,226,07,17,29,053,12,19,4Wow you're going too fast.
